osm_id,osm_type,name,amenity,operator,operator_type,addr_street,phone,website,latitude,longitude
638425993,node,Colégio Presbiteriano do Brás,school,,,,,,-23.5412135,-46.5996502
696175114,node,Coreo Dança,school,,,,,,-23.6358527,-46.6981411
745728710,node,Anglo Vestibulares,school,,,,,,-23.5636722,-46.6348742
922094743,node,Lycee Pasteur,school,,,,,,-23.5922627,-46.6298562
1040038931,node,Fátima,school,,,,,,-23.5977657,-46.5254347
1041601043,node,Escola Pipoquinha,school,,,Alameda Sarutaiá,,,-23.5707203,-46.6527579
1056733098,node,Escola Dom Ratinho,school,,,,,,-23.5727588,-46.6577123
1059213957,node,Escola de Yoga,school,,,Rua Maria Figueiredo,,,-23.5702509,-46.6483781
1066862942,node,Colégio Winnicott,school,,,Alameda Campinas,,,-23.5701355,-46.6571707
1066864702,node,Escola Kumon,school,,,Rua Batatais,,,-23.5712647,-46.6561862
1066868351,node,Escola UNS de Inglês,school,,,Alameda Sarutaiá,,,-23.5696672,-46.6541592
1069878010,node,EMEI Clóvis Bevilacqua,school,,,,,,-23.5983101,-46.5157171
1111596842,node,Beatíssima Virgem Maria,school,,,,,,-23.6226107,-46.6880944
1351407651,node,EE João Evangelista,school,,,,,,-23.6696839,-46.6542982
1369147267,node,Escola Santa Tereza,school,,,,,,-23.5092572,-46.7291686
1373435413,node,Escola Mais,school,,,Rua Alfredo Mendes da Silva,1142601763,https://www.escolamais.com/,-23.6030041,-46.7453423
1443230337,node,Colégio Elvira Brandão,school,,,Luiz Seraphico Júnior,,,-23.6346211,-46.7133489
1590281330,node,Colégio São Domingos Sávio,school,,,,,,-23.6033337,-46.7506249
1617202931,node,Colégio Bandeirantes,school,,,,,,-23.5777066,-46.6436704
1707884010,node,Escola Estadual Professora Marina Cerqueira Cesar,school,,,,,,-23.537753,-46.7006135
1707884012,node,EMEI Ana Maria Poppovic,school,,,,,,-23.5355464,-46.7011849
1769043914,node,EE Conde José Vicente de Azevedo,school,,,,,,-23.6087304,-46.6256798
1770073803,node,Yazigi,school,,,Avenida Paes de Barros,,,-23.5684675,-46.5888307
1780618682,node,Curso Singular Anglo,school,,,,,,-23.6142849,-46.5720635
1793086586,node,Diko Pataca,school,,,,,,-23.6129156,-46.6814279
1812397336,node,Escola Municipal de Educação Fundamental Raul Pompéia,school,,,Avenida Elias Antônio Lopes,+55 11 3941-5024,,-23.434141,-46.713806
1910371912,node,EMEF Professor Roberto Patrício,school,,,Rua Antonio Domingues Freitas,,,-23.471763,-46.6545682
1925452010,node,Colégio Clóvis Bevilacqua,school,,,Rua Sidnei,+55 11 2107 5878,https://portalclovis.com.br/,-23.6221408,-46.5318813
1941018593,node,Fernando Pessoa,school,,,,,,-23.6001049,-46.399783
2324408735,node,E. E. Professora Irene Ribeiro,school,Governo do Estado de São PAulo,,,,,-23.5547848,-46.5224342
2553376028,node,Escola de Educação Infant Reluz I,school,,,Rua Benedito Conrado Filho,+55 11 4341 6613,,-23.7025554,-46.5723378
2568791837,node,E.M. Norimar Teixeira,school,,,,,,-23.6896037,-46.7404693
2580615010,node,Centro Social Santa Luzia,school,Rede Salesiana Brasil,,Rua da Padroeira,+55 11 2045-5000,http://www.cssantaluzia.org.br,-23.5342776,-46.483122
2581721349,node,EMEF Amadeu Amaral,school,,,,,,-23.5195133,-46.494018
2582236428,node,Colégio Inovação - Unidade I,school,,,,,,-23.5183742,-46.4886438
2583576428,node,Escola Municipal de Educação Fundamental Luís,school,,,Rua Conceição da Brejaúba,+55 11 2687 1833,,-23.5192425,-46.5098012
2583581290,node,E.E. Deputado Silva Prado,school,,,Rua Eng. Luís Antônio Rantin Moutinho,,,-23.5154789,-46.5035269
2589883097,node,EMEF Erico Verissimo,school,,,,,,-23.4784213,-46.7064507
2656524469,node,Cei Castelinho Encantado IV,school,,,Rua Gonçalo Ribeiro Corco,,,-23.5463148,-46.3890157
2671502220,node,Escola BRTech,school,,,Rua São Joaquim,+55 11 4056 1299,,-23.6855615,-46.6271608
2725822896,node,Instituto de Cegos Padre Chico,school,,,Rua Moreira de Godói,+55 11 2274-4611,https://www.padrechico.org.br/conteudo.php?mnu=2&sb_mnu=7,-23.5917265,-46.6083252
2725862496,node,Colégio São Camilo Cardeal Mota,school,São Camilo,,Rua Paulo Bregaro,+55 11 2588-4500,,-23.5836544,-46.6120686
2778472358,node,Escola Estadual Ludovina Credidio Peixoto,school,Secretaria da Educação do Estado de São Paulo,government,Rua Jesuíno Arruda,+55 11 3168 3582,,-23.5818499,-46.6726356
2795084385,node,Escola Municipal Iliano Di Cavalcanti,school,,,Rua Almirante Alexandrino,,,-23.5701017,-46.5681603
2812233693,node,Carandá,school,,,,,,-23.5949383,-46.6498814
2860552969,node,Colégio Estação Fundamental,school,,,,,,-23.5792306,-46.6437706
2869109095,node,Centro Britânico,school,,,Rua Harmonia,,,-23.5496971,-46.6920138
2896368518,node,Kumon,school,,,Rua Oragnof,+55 11 4341 8357,https://www.kumon.com.br/sp/sao-bernardo-do-campo-planalto/,-23.6959526,-46.5679453
2915165616,node,Colégio Fênix - Unidade 1,school,,,,,,-23.6206164,-46.5615449
3028959560,node,Instituto Embelleze,school,,,Avenida Antonio Piranga,+55 11 4092 3577,https://institutoembelleze.com/franquia/diadema/cursos,-23.6865045,-46.6192545
3044501917,node,Colégio São Paulo 2000,school,,,Avenida Francisco Vieira Bueno,,,-23.5901349,-46.5304493
3189450561,node,Escola Prontidão,school,,,Rua das Pitangueiras,,,-23.6480956,-46.5374884
3190275601,node,Colégio Estímulo,school,,,Rua do Centenário,,,-23.6619738,-46.5379737
3228473922,node,E.E. Antônio Manoel Alves de Lima,school,,,,,,-23.6600582,-46.7374443
3307961244,node,EE Governador Miguel Arraes,school,,,Rua Herbert Spencer,,,-23.6160699,-46.7236821
3307961253,node,EE Professor Homero dos Santos Fortes,school,,,Rua Herbert Spencer,,,-23.6161631,-46.7230845
3307961255,node,EMEF Dom Veremundo Toth,school,,,,,,-23.6223464,-46.7286851
3307961256,node,EMEF Perimetral,school,,,,,,-23.6214897,-46.7294465
3307966564,node,Colégio Objetivo Morumbi,school,,,Rua Duquesa de Goiás,+55 11 3758-0073,https://objetivo.br/,-23.6097704,-46.7042873
3317287204,node,E.E. Vila São Luís,school,,,,,,-23.660572,-46.7375525
3372186371,node,Escola de Yoga,school,,,,,,-23.5328828,-46.680869
3471525217,node,Escola Municipal Edgard Cavalheiro,school,,,Rua Pôrto da Glória,,,-23.5079059,-46.5416473
3522273913,node,Fundação Paulista de assistência à criança Casa dom Gastão,school,,,Rua Prates,,,-23.5315885,-46.6366449
3577367240,node,Conservatorio Musical São Paulo,school,,,Avenida Cruzeiro do Sul,,,-23.4994053,-46.6249188
3643215873,node,Colegio Objetivo,school,,,Avenida Doutor Assis Ribeiro,,,-23.4833687,-46.4911356
3673899792,node,Escola de Idiomas,school,,,Rua do Acre,,,-23.5595532,-46.5828079
3705338508,node,D Ambrosio Instituto Educacional,school,,,Avenida Doutor Bernardino Brito Fonseca de Carvalho,,,-23.5460303,-46.5048492
3755216504,node,Escola Mundial de Línguas,school,,,,,,-23.5796678,-46.6450433
3758362089,node,EMEF 28 de Julho,school,,,,,,-23.6223742,-46.5538764
3841339671,node,Escola Municipal de Educação Infantil Fernado Piva,school,,,Rua Cavalheiro Ernesto Giuliano,+55 11 4232 6136,,-23.6350801,-46.5617206
3856633457,node,C.E.I. Jd. Copacabana,school,,,,,,-23.6893023,-46.7697249
3955150864,node,Centro Educacional Unificado Sapopemba,school,,,Rua Manoel Querinos de Matos,,,-23.6114363,-46.4971143
4012668495,node,Vicente rao,school,Governo,,Rua Nestor Sampaio Penteado,,,-23.6760391,-46.6509755
4028953529,node,Colégio Escrevivendo,school,,,Avenida Líder,,,-23.5568066,-46.4744372
4103131279,node,Escola Municipal de Ensino Fudamental Brasil Japão,school,Secretaria Muncipal de Educação,government,Rua Doutor Paulo Carvalho Ferreira,,,-23.573586,-46.761548
4134768092,node,Alumni - Cursos de inglês,school,,,Rua Padre João Manuel,,,-23.5613957,-46.6612792
4135975772,node,Escola particular,school,,,,,,-23.694646,-46.7914114
4207252844,node,E.M.E.F. M'Boi Mirim II,school,,,Rua Nova do Tuparoquera,,,-23.6654047,-46.7459761
4260401090,node,Corinthians Planeta Bola,school,,,,,,-23.5970596,-46.7465838
4288313827,node,EMEF José Bento de Assis,school,,,,,,-23.4876893,-46.4215954
4332646214,node,EE Maria de Loudes Vieira,school,,,,,,-23.4899493,-46.4324942
4332671892,node,Colégio Cavlac,school,,,,,,-23.4874865,-46.433338
4365625691,node,Escola Municipal de Educação Infantil Abelardo Galdino Pinto,school,,,Rua Coronel Camisão,+55 11 4232 2146,,-23.6308832,-46.5646988
4366717276,node,EMEI Rosa Perrella,school,Prefeitura Municipal,,Rua Lourdes,+55 11 4238 1897,,-23.6378458,-46.5679443
4399780916,node,EMIA - Escola Municipal de Iniciação Artística,school,,,"R. Volkswagen, s/n - Parque Lina e Paulo Raia",(11) 5017-7552,,-23.6359062,-46.6424179
4410815690,node,Colégio Nova Geração,school,,,Avenida Itaboraí,,https://www.supernovageracao.com.br/,-23.6095903,-46.6214959
4442483033,node,Colégio Nova Geração,school,,,,,,-23.5662244,-46.6328639
4453259952,node,Wizard Ingles,school,,,Rua Maria Cândida,,,-23.5077339,-46.598811
4526887650,node,Escola Municipal de Ecologia Presidente Jânio da Silva Quadros,school,,,Rua da Paz,,,-23.641485,-46.5740015
4554124973,node,Escola Waldorf Rudolf Steiner,school,,,Rua Job Lane,,https://ewrs.com.br/,-23.6381173,-46.6840759
4614553640,node,Auto Escola,school,,,Rua Doutor Carlos Botelho,,,-23.5380382,-46.6080526
4654080189,node,Escola Pedro Teixeira,school,,,Rua Fruta de Caiapo,,,-23.5122263,-46.4563072
4673478802,node,Colégio Augusto Silva,school,,,Rua Itapipoca,,,-23.5270199,-46.4877285
4674557981,node,Projeto Nadar,school,,,Rua Guerino Giovani Leardini,,,-23.4869196,-46.7216048
4691176601,node,Colégio Elias Zarzur,school,,,,,,-23.6687591,-46.7297605
4736276128,node,Ciranda do Saber,school,,,Rua Paraíba,+55 11 2339-3882,,-23.533656,-46.6171726
4740025814,node,Colégio Esperanto,school,,,,,,-23.5313584,-46.5706677
4796903723,node,CEI Indir Monte Azul,school,,,Avenida Tomás de Sousa,,,-23.6458668,-46.7367882
4823737889,node,Centro Britânico,school,,,Rua Mourato Coelho,,,-23.5626008,-46.6881195
4823871574,node,Escola Santi,school,,,Rua Abílio Soares,,,-23.5748442,-46.6459845
4855837148,node,E.E Godofredo Furtado,school,,,Rua João Moura,,,-23.5593782,-46.6785903
4873039427,node,Escola de Futebol Infantil e Campo Adulto,school,,,,,,-23.6648169,-46.750412
4890170423,node,E.E Eduardo Prado,school,,,Rua Almirante Barroso,,,-23.5375883,-46.6127607
4947759384,node,Objetivo,school,,,Rua São Carlos do Pinhal,,,-23.5646891,-46.6505607
4956930535,node,Escola Estadual Rodrigues Alves,school,Governo do Estado de São Paulo,government,Avenida Paulista,,,-23.5699107,-46.6464892
4972271216,node,Escola Municipal de Ensino Infantil Jean Piaget,school,Secretaria Municipal de Ensino do Município de São Paulo,,Rua Saldanha da Gama,,,-23.530733,-46.7128731
4983144623,node,WA Danças,school,,,Rua Augusta,,,-23.5552368,-46.6570294
4995217333,node,PlayPen Bilingual Education,school,,,,,,-23.5860803,-46.6984507
5008342230,node,Let's Code,school,,,,,,-23.5788848,-46.6823547
5077660162,node,Escola Estadual Martins Pena,school,,,,,,-23.6676111,-46.6562754
5077660163,node,Colégio São Francisco de Assis,school,,,,,,-23.6724248,-46.656852
5077660164,node,Colégio Adventista de Cidade Ademar,school,,,,,,-23.6699965,-46.6520589
5077660165,node,EE Professor João Evangelista Costa,school,,,,,,-23.6647516,-46.6599902
5077660166,node,Emef Elza Maia Costa Freire PROFA,school,,,,,,-23.6732391,-46.6586411
5077676188,node,EMEF Professor Antônio de Sampaio Dória,school,,,Praça Tito Pacheco,+55 11 5621-5086,,-23.6819778,-46.6424667
5110058027,node,Escola Municipal de Educação Infantil Cornélio Pires,school,,,,,,-23.5704997,-46.56836
5136378223,node,Escola Municipal de Educação Infantil Olga Maria,school,,,Avenida Paula Ferreira,,,-23.4947903,-46.7139842
5160303324,node,E.M.E.F Antônio Alves da Silva Sargento,school,,,,,,-23.6836433,-46.789625
5237630822,node,Escola de Samba Gaviões da Fiel,school,,,,,,-23.5197715,-46.645042
5261436920,node,Escola Nossa Senhora das Graças,school,,,,,,-23.6481026,-46.633418
5310325638,node,EMEF Aureliano Leite,school,,,Rua José Francisco Brandão,,,-23.5931204,-46.3932697
5371381560,node,ETAPA - São Joaquim,school,,,,,,-23.561764,-46.6390076
5384177774,node,Escola Estadual Professor Palace Marques,school,,,,,,-23.5079182,-46.5108112
5414643876,node,E.M.E.F. Vereadora Anna Lanberga Zéglio,school,,,Rua Olimpia Montani,,,-23.5909601,-46.4012706
5414643895,node,Salgado,school,,,Avenida dos Têxteis,,,-23.5917262,-46.3958814
5448846524,node,Minds,school,,,,,,-23.5802241,-46.6508149
5454351424,node,Colégio Saab,school,,,,,,-23.5319334,-46.5783196
5506981171,node,Base (NGO),school,,,,,,-23.6578096,-46.7860788
5545123269,node,Santa Maria,school,,,Rua Santa Rita,,,-23.5319409,-46.611007
5545648811,node,Escola Santa Maria,school,,,Rua Santa Rita,,,-23.532339,-46.6111939
5545841443,node,Escola de Educação Infantil é Bom Somhar,school,,,Rua Julia Lopes de Almeida,+55 11 2978-2988,,-23.4889013,-46.6143037
5574879685,node,Joanna Abrahao Profa,school,,,,,,-23.6810012,-46.6490005
5575021943,node,Escola Estadual João Ernesto Faggin,school,,,,,,-23.6748369,-46.6322662
5575050421,node,Maria Augusta de Moraes Neves Profa,school,,,,,,-23.66788,-46.6425779
5575328013,node,EMEF CARLOS AUGUSTO DE QUEIROZ ROCHA,school,,,,,,-23.6817075,-46.6450671
5599504766,node,EMEI Vicente de Carvalho,school,,,Rua Victória Marconato Zonta,,,-23.6091204,-46.4930197
5613489124,node,Escola Arte e Manhã,school,,,Rua Oliveira Alves,,https://www.arteemanha.com/,-23.5856651,-46.6074072
5613584061,node,Portinari,school,,,,,,-23.6399491,-46.5262011
5613755096,node,Betel Brasileiro,school,,,,,,-23.6545679,-46.5303904
5696650582,node,Professor Edgard Pimentel Rezende,school,Governo de SP,,Rua Jerônimo Solto Maior,,,-23.4762237,-46.6934495
5712357633,node,Escola Estadual Professora Maria Ribeiro Guimarães Bueno,school,,,,,,-23.6204928,-46.6296605
5739288016,node,Objetivo,school,,,Rua Teodoro Sampaio,,,-23.5570971,-46.6768714
5771828516,node,Escola Municipal de Educação Fundamental Professor João Campestrini,school,Secretaria Municipal da Educação,government,Rua Reinaldo Ceschini,+55 11 3602 5611,,-23.4991721,-46.8083393
5774232421,node,Escola da Prefeitura de Guarulhos Zélia Gattai,school,,,Avenida João Bassi,+55 11 2414 1057,,-23.4170416,-46.4271308
5864116163,node,Escola Municipal de Educação Infantil Maurice Bou Assi,school,Secretaria Municipal da Educação,,Estrada do Bandeirante,+55 11 4675 3433,,-23.5375179,-46.3841078
5911838617,node,E.E Fernão Dias Paes,school,,,Avenida Pedroso de Morais,,,-23.5661013,-46.6896431
5941499318,node,EMPG VLADIMIR HERZOG,school,,,Rua Francisco José Viana,,,-23.6097731,-46.3979162
5977226485,node,Objetivo CSA,school,,,Rua Aparaó,+55 11 3721 1160,https://www.objetivocsa.com.br/unidades,-23.5880508,-46.7262396
6058846485,node,CEU EMEF Presidente Campos Sallles,school,,,,,,-23.6224158,-46.5908647
6122582168,node,Escola Municipal de Educação Profissional e Saúde Pública Professor Makiguti,school,,,Avenida dos Metalúrgicos,,,-23.5982981,-46.4023574
6219096185,node,Yázigi - Inglês,school,,,,,,-23.4688699,-46.6633081
6277583482,node,Colégio Belo Futuro Internacional,school,,,Rua Barão de Cotegipe,,,-23.6403336,-46.6993162
6344333770,node,Colégio Rodrigues Dias,school,,,Avenida Nossa Senhora da Encarnação,,,-23.632693,-46.6007331
6380965261,node,Circo Escola,school,,,,,,-23.4714522,-46.6824556
6408098036,node,Professor José Nascimento,school,,,Rua Luísa,,,-23.6854855,-46.6380559
6412753086,node,Colégio Benjamin Constant,school,,,Rua José Antônio Coelho,,,-23.5792615,-46.6414831
6456399085,node,Colégio Moriah,school,,,,,,-23.6663932,-46.5298712
6518491270,node,Unicid Curso de Medicina,school,,,Rua Butantã,,,-23.5700725,-46.6976429
6572668108,node,CEI Uirapuru,school,,,Rua Nazir Miguel,,,-23.6003883,-46.7894073
6572668109,node,Escola Municipal de Educação Infantil Uirapuru,school,,,Rua Nazir Miguel,,,-23.6000417,-46.7892705
6579426887,node,EMEF Caminho do Mar,school,,,Avenida Engenheiro Armando de Arruda Pereira,,,-23.6671669,-46.6360309
6581855661,node,Escola Municipal de Educação Infantil Professora Luciana Azevedo Pompermayer,school,Secretaria da Educação do Município de São Paulo,government,Rua Professor Artur Primavesi,,,-23.6433846,-46.6077923
6581855662,node,Escola Municipal de Ensino Fundamental Professora Maria Cristina Tartaglia Sena,school,Secretaria da Educação do Município de São Paulo,government,Rua Professor Artur Primavesi,,,-23.6435173,-46.6081169
6584571817,node,CEI Professora Ana Lúcia de Holanda Gamboa,school,Secretaria Municipal de Educação de São Paulo,government,Avenida Marechal Tito,+55 11 2563 6123,,-23.4954736,-46.412089
6584571818,node,Escola Municipal de Educação Infantil Professor Apparecido Domingues,school,Secretaria Municipal de Educação de São Paulo,government,Avenida Marechal Tito,+55 11 2563 6123,,-23.4955744,-46.4120943
6584571819,node,Escola Municipal de Ensino Fundamental Vila Curuça,school,Secretaria Municipal de Educação de São Paulo,government,Avenida Marechal Tito,+55 11 2563 6112,,-23.4957884,-46.4120916
6644156368,node,Colegio Horizontes,school,,,Rua Fidalga,,,-23.5549433,-46.6908196
6759513361,node,E.E. Roberto Hipolito da Costa Brigadeiro do Ar,school,,,Rua Arceburgo,,,-23.4442989,-46.4624981
6765306210,node,CEI CEU Parque Anhaguera,school,Secretaria Municipal de Educação,government,Rua Pedro José de Lima,+55 11 3911 4232,,-23.4396053,-46.7875989
6765306211,node,Escola Municipal de Ensino Fundamental Parque Anhanguera,school,Secretaria Municipal de Educação,government,Rua Pedro José de Lima,+55 11 3911 1676,,-23.4397504,-46.7876704
6765306212,node,Escola Municipal de EducaçãoBásica Parque Anhanguera,school,Secretaria Municipal de Educação,government,Rua Pedro José de Lima,+55 11 3911 4770,,-23.4398161,-46.787742
6769945479,node,Escola da Prefeitura de Guarulhos Hamilton Félix de Souza,school,Secretaria da Educação de Guarulhos,government,Avenida Ataláia do Norte,,,-23.4513342,-46.439899
6808072301,node,Colégio Guarapiranga,school,,,Rua Uiraçú,,,-23.6779857,-46.7349431
6833520885,node,Escola Antenor Nascentes,school,,,,,,-23.6876209,-46.6728125
6865270147,node,creche municipal Analívia Pedro,school,,,,,,-23.5700028,-46.3683169
6960270949,node,Centro de Pesquisa e Formação SESC,school,,,,,,-23.5579865,-46.6521019
7041128377,node,Vesper,school,,,,,,-23.5459475,-46.6922443
7154069419,node,Colégio Panterra,school,,,,,,-23.5422588,-46.4853167
7270541966,node,Escola Estadual Professor Antônio Prado Júnior,school,Secretaria da Educação do Estado de São Paulo,government,Rua David Boscariol,+55 11 4514 6031,,-23.6617402,-46.4603095
7573082486,node,Escola Municipal de Educação Básica Doutor Humberto  Marquelli Mendonça,school,,,Rua Maria Helena,+55 11 4066 1835,,-23.6891243,-46.5873958
7573211228,node,Colégio Methodus,school,,,Avenida Fukuichi Nakata,,,-23.6782155,-46.5866531
7573488040,node,Escola Municipal Jardim Marilene,school,,,Rua Luiz de Vasconcelos,+55 11 4066 5713,,-23.6945736,-46.5951221
7616224689,node,Colégio Objetivo,school,,,Rua Ferreira de Araújo,,,-23.5649116,-46.6979735
7862461158,node,Dr João Augusto Breves,school,,,,,,-23.5222659,-46.4360369
8117073934,node,Kinder Kampus School,school,,,,,,-23.6289922,-46.7316159
8185851136,node,Escola Estadual Regente Feijó,school,,,Praça Itálico Ancona Lopez,,,-23.497068,-46.689927
8189095041,node,Colégio Inovação,school,,,Rua Antonieta Leitão,,,-23.5024948,-46.6966413
8192401483,node,Escola Estadual Paulo Trajano,school,,,,,,-23.4869922,-46.7078177
8423170004,node,Colégio Internacional Radial,school,,,Avenida Jabaquara,,,-23.620795,-46.6398882
8425982195,node,Sociedade Beneficiente Feminina Mika,school,,,Rua Paracatu,+55 11 5585-9258,,-23.6214959,-46.6411364
8505194899,node,CEU INÁCIO MONTEIRO,school,Prefeitura,public,,,,-23.5699592,-46.4115114
8998814633,node,Elite Rede de Ensino - Mauá,school,,,Rua Álvares Machado,,https://ensinoelite.com.br,-23.6692573,-46.4544352
9116940743,node,Company Idiomas,school,,,,,,-23.5228528,-46.5423217
9188722925,node,Reforço Escolar Prioridade,school,,private,Rua Central,,https://www.reforcoescolarprioridade.com.br/,-23.6663174,-46.8030672
9196329470,node,Mariuma Buazar Mauad,school,Mariuma Buazar Mauad,public,Rua Padre Aldemar Moreira,(11) 2282-0525,,-23.5990046,-46.396309
9444695155,node,E.E.I.E.F. Embaixador Assis Chateaubriand,school,Fundação Bradesco,charitable,Praça Pedro Salgado,+55 11 3684 5172,https://fundacao.bradesco/pt-BR/Escolas?ID=4,-23.5454904,-46.7716009
9444695156,node,E.E.F.M.E.P.J.A. Embaixador Assis Chateaubriand,school,Fundação Bradesco,private,,+55 11 3684 4272,,-23.5466974,-46.7661052
9451162747,node,Nossa Sra. Aparecida,school,,,,,,-23.6676178,-46.7381686
9451162850,node,Instituto Gourmet,school,,,,,,-23.672843,-46.7433576
9885218646,node,E. E. Gomes Cardim,school,,,,,,-23.5773192,-46.6250474
9974704393,node,colegio Stagio,school,,,,,,-23.6602704,-46.5695187
9976360154,node,Colégio Objetivo,school,,,,,https://www.objetivo.br/,-23.5653632,-46.6512566
10058041896,node,Escola Uniart,school,,,Rua da Matriz,,https://escolauniart.com.br/,-23.6556953,-46.7082454
10116190917,node,Colégio São Luiz de Gonzaga - Unidade 3,school,,,Rua Santa Archelia,,https://colegiosaoluizunidade3.com.br/,-23.6494795,-46.7477485
10164510936,node,Escola 360,school,,,,,,-23.3836547,-46.4016572
10226517363,node,Salesiano,school,,,Rua Dom Henrique Mourão,,,-23.4899298,-46.6330609
10684471487,node,Colégio Humboldt,school,,,,,,-23.6872219,-46.7096248
10837399442,node,E.E.E. Helena Pereira de Moraes,school,,,Alameda Conde de Porto Alegre,,,-23.6417467,-46.5538226
10912835368,node,Escola Estadual Marechal Deodoro,school,Governo do Estado de São Paulo,public,Rua dos Italianos,,,-23.5261023,-46.6430749
11021055239,node,Colégio Franciscano João XXIII,school,,,Rua Caminho do Engenho,(11) 3751-0036,https://www.cfj23.com/,-23.5973963,-46.7433561
11035589004,node,Kumon,school,,,Rua Rosa e Silva,+55 11 4343 5484,https://www.kumon.com.br/sp/sao-bernardo-do-campo-independencia/,-23.6964976,-46.5812403
11119109713,node,Serviço Social da Indústria SESI 426,school,Terreno próprio (Coordenado pelo diretor do centro de atividades SESI-SP Mário Quaranta),private,Rua Porto Principe,(11) 4092-7900,https://diadema.sesisp.org.br/,-23.6722954,-46.6128395
11119816816,node,Colégio Santo Antônio de Lisboa,school,ASSOCIAÇÃO UNIÃO BENEFICENTE DAS IRMÃS DE SÃO VICENTE DE PAULO DE GYSEGEM,association,Rua Francisco Marengo,,https://colegiosvicentinos.com.br/colegio/santo-antonio-lisboa,-23.5488148,-46.5565386
11119816860,node,Escola Estadual PEI Prefeito Nestor de Camargo,school,Secretaria da Educação de São Paulo,public,Rua Vitorino Caligari,+55 11 2658-8021,,-23.501853,-46.8152696
11119841466,node,Colégio São Vicente de Paulo Penha,school,Assosciação União Beneficente das Irmãs de São Vicente de Paulo de GYSEGEM,association,Praça da Nossa Senhora Penha,,https://colegiosvicentinos.com.br/colegio/sao-vicente-paulo-penha,-23.5260946,-46.5493382
11142231993,node,Colégio Dr. Walter Belian,school,Fundação Antônio e Helena Zerrener,private_non_profit,Rua Serra de Paracaina,+55 11 3185 7600,,-23.5612105,-46.6153369
11161509162,node,Colégio Alicerce,school,,,Rua Antônio de Oliveira Gago,,,-23.6726717,-46.6822906
11218637467,node,CCA Irmã Dely Fabres,school,,,Rua São Paulo,,,-23.5567927,-46.6302567
11236547355,node,Santa Clara,school,,,Rua São Sabino,,,-23.5773137,-46.5498071
11237139615,node,Colégio Cetec,school,,,,,,-23.6453528,-46.6397756
11237252945,node,Colégio São Sabas,school,,,,,,-23.6479584,-46.6718159
11237262295,node,Colégio Marquês de Monte Alegre,school,,,,,,-23.6527666,-46.655547
11237278083,node,Colégio Videira Filho,school,,,,,,-23.6733992,-46.6438452
11237287040,node,Colégio Decisão,school,,,,,,-23.6607482,-46.6695137
11237353735,node,Escola Estadual Reducino de Oliveira Lara,school,,,,,,-23.6526951,-46.6662177
11240097590,node,Jose Baptista Rios Castelloes Prof,school,,,,,,-23.6700111,-46.6583095
11242286185,node,Sagrada Familia De Nazare,school,,,,,,-23.6236658,-46.6317767
11247032486,node,EE Princesa Isabel,school,,,,,,-23.6093829,-46.6274161
11247226206,node,EE Salvador Moya,school,,,,,,-23.6497528,-46.6350118
11251979857,node,Colégio Arcádia,school,,,,,,-23.6139279,-46.6286033
11278128326,node,Kumon,school,,,Avenida São Bernardo do Campo,+55 11 4457 7876,https://www.kumon.com.br/sp/santo-andre-vila-luzita/#conheca-mais-a-unidade,-23.6994206,-46.5078103
11368633197,node,EMEF Altino Arantes,school,,,Rua Coronel Augusto Celso de Moura,,,-23.6093006,-46.5293599
11592950953,node,Maple Bear,school,,,,,,-23.6456692,-46.6993457
11832977878,node,Maple Bear Granja Julieta,school,,,,,,-23.6409456,-46.701122
11879318786,node,Aquarela,school,,,,,,-23.543929,-46.6816135
11905531244,node,Kung-Fu - Eddie Freire Wing-Chun - Li Hon Ki System,school,,,Rua São Paulo,,,-23.5569663,-46.6326534
11911034344,node,Escola Lumiar - Vila Olimpia,school,,,Avenida Doutor Cardoso de Melo,,https://lumiaredu.com/,-23.6025964,-46.6751816
11959448681,node,EMEF Professora Virgínia Valeria Aparecida de Almeida Freitas,school,,,R. São Paulo,,,-23.4368094,-46.7739052
11960609495,node,EMEF Professor Adolfo Otto de Laet,school,Prefeitura de São Paulo,público,Rua Isidoro de Laet,,www.prefeitura.sp.gov.br,-23.4817072,-46.6267006
11986412404,node,Engenharia de Software,school,,,,,,-23.6330672,-46.7757043
12301584970,node,Plano A - Educação,school,Juliana Moura,,"R. Padre João Manuel, 235 - Conjunto 53",,,-23.5606797,-46.6606968
12423231124,node,Red House International School,school,,,,,,-23.5024366,-46.6459451
12448725248,node,EMEF Profa. Ana Maria Alves Benetti,school,,,,,,-23.6523981,-46.6459186
12489348078,node,Unimor,school,,,,,,-23.4995294,-46.6456385
12489402190,node,Projeto Vida,school,,,,,,-23.499443,-46.648301
12498234191,node,Colégio Mantovani,school,,,,,,-23.573084,-46.7276992
12512436455,node,Centros de Convivência e Cooperativa (cecco),school,Prefeitura Municipal de São Paulo,government,Rua Taquari,,,-23.5516671,-46.5985111
12512436464,node,E.M.E.F. Droutor Fábio da Silva Prado,school,Prefeitura Municipal de São Paulo,government,Rua Taquari,,,-23.5511539,-46.5988105
12526317862,node,Colégio Lua Ensino Fundamental,school,,,,,,-23.571719,-46.7273571
12600261635,node,Colégio Enigma,school,,,,,,-23.6508377,-46.5359484
12607810921,node,eXponencial cursos,school,,,,,,-23.5762167,-46.742154
12749897605,node,Escola da Vila,school,,,,,,-23.568528,-46.7134186
12752956864,node,Sesc,school,,,Rua Xavier Curado,,,-23.584641,-46.6084894
12755564423,node,EMEF General Julio Marcondes Salgado,school,,,Avenida Edú Chaves,,,-23.4797831,-46.5728765
12843174976,node,Emei Joaquim Antonio Da Rocha,school,,,Rua Professor José Ozi,,,-23.6096768,-46.5818498
12843226250,node,CEU Meninos,school,,,Rua Barbinos,,,-23.6211373,-46.5833851
12849126494,node,CEI Carrossel,school,,,,,,-23.5437154,-46.7453513
13113014280,node,Escola Estadual Adelino José da Silva D Azevedo,school,,,Rua Cachoeira de Minas,,,-23.62081,-46.4796448
13123850911,node,Distrito EscolarJaraguá II,school,,,,,,-23.4523253,-46.7302869
13163331801,node,joao dias da silveira,school,,,,,,-23.5352707,-46.5637276
13233733030,node,Colégio 24 de Março,school,,,,,,-23.6719366,-46.6691558
13249812208,node,Supera Morumbi,school,,,,,,-23.5898774,-46.7182841
13311320171,node,CEEC,school,,,,,,-23.6423045,-46.5759281
42759435,way,Colégio Humboldt,school,,,Avenida Engenheiro Alberto Kuhlmann,,www.colegiohumboldt.com.br,-23.6874879,-46.7099058
59432879,way,E.E Professora Maria de Lourdes Aranha de Assis Pacheco,school,,,Rua Isidoro de Lara;Rua Angelo Andrade,,,-23.5437438,-46.4403806
59441706,way,E.E Professor Joaquim Silvério Gomes dos Reis,school,,,Rua Guilherme Valência,+55 11 2521-1188;+55 11 2521-1800,,-23.5516573,-46.4414615
59441708,way,Escola Estadual Professora Indiana Zuycher Simões de Jesus,school,,,Rua Inácio Donati,+55 11 2286-1822;+55 11 2944-6364,,-23.5410299,-46.4350252
59458164,way,Escola Estadual Professora Ruth Cabral Troncarelli,school,,,Rua Antônio Gandini,+55 11 2205-0709;+55 11 2286-3636,,-23.5386981,-46.4407212
75971207,way,Escola Municipal de Ensino Fundamental Jairo Ramos,school,,,Rua General Lauro Cavalcanti de Farias,+55 11 3904 0863,,-23.4901103,-46.7467984
75974172,way,Escola Municipal de Educação Fundamental Rui Bloem,school,,,Rua Armando Flamarion Coelho,,,-23.4966834,-46.7500206
75974173,way,Escola Estadual Professora Zenaide Vilalva de Araújo,school,Secretaria da Educação do Estado de São Paulo,,Rua Belo Jardim,+55 11 3904-0216,,-23.4857888,-46.7513277
76445678,way,EMEF Desembargador Silvio Portugal,school,,,Rua Francisco Saverio Orlandi,+55 11 3904 8722,,-23.4864075,-46.7338103
78266854,way,Escola Municipal de Astrofísica Professor Aristóteles Orsini,school,,,,,https://www.parqueibirapuera.org/equipamentos-parque-ibirapuera/escola-de-astrofisica-professor-aristoteles-orsini/,-23.5849075,-46.6613683
79399579,way,CEU Vila Atlântica,school,,,Rua Coronel José Venancio Dias,+55 11 3901-8743;+55 11 3901-8744,,-23.4806398,-46.7623521
79399583,way,Escola Municipal de Educação Fundamental General Henrique Geisel,school,,,Rua Miguel Pereira Landim,+55 11 3904 0688,,-23.4896003,-46.7565116
93549440,way,E.E Carlos Pereira,school,,,Avenida Inconfidência Mineira,,,-23.5804247,-46.5177141
96124505,way,Colégio Porto Seguro Unidade I Morumbi,school,Colégio Visconde de Porto Seguro,private,,,https://www.portoseguro.org.br/,-23.6061323,-46.7209058
112089163,way,CEI Indir Iguaçu,school,Prefeitura Municipal de São Paulo,government,Avenida do Oratório,,,-23.613214,-46.5228173
114355091,way,Escola Municipal Professor Paulo Sinna,school,Prefeitura Municipal de Santo André,government,Rua Álvaro Lins,+55 11 4455 9636,,-23.6904948,-46.5049278
122426698,way,Escola Estadual Professor Manoel Tabacow Hidal,school,Secretaria da Educação do Estado de São Paulo,,Rua Manoel de Macedo,+55 11 5611 7364,,-23.6946815,-46.6708002
123656437,way,EMEF Profª Liliane Verzini Silva,school,,,,,,-23.690543,-46.6385411
123803600,way,Chapel School,school,,,,,,-23.6493762,-46.6893704
123803602,way,Escola Suíço-Brasileira,school,,private,Rua Visconde de Porto Seguro,,,-23.6459508,-46.6902056
125113207,way,Centro Educacional Unificado Professor Paulo Gonçalo dos Santos,school,Secretaria da Educação,government,Estrada do Alvarenga,+55 11 5672 2513,http://portalsme.prefeitura.sp.gov.br/Escolas/019260/Default.aspx,-23.7045605,-46.644507
125450924,way,EMEI Heitor Villa Lobos,school,,,Rua Curitiba,,,-23.5818375,-46.6542231
126123528,way,Colégio Belo Futuro,school,,,Avenida Santo Amaro,,,-23.6401451,-46.6978474
126123575,way,S.O.S. Computadores,school,S.O.S. Computadores,,Avenida Adolfo Pinheiro,,,-23.63902,-46.6962021
126139358,way,EMEI Professor Ignácio Henrique Romeiro,school,,,Alameda Jauaperi,,,-23.6096394,-46.6712773
129999711,way,Serviço Social da Indústria SESI 426,school,Sesi 426,private,Avenida Paranapanema,+55 11 4092 7900,http://www2.sesisp.org.br/home/2006/cat/home.asp,-23.6718269,-46.6116732
130174610,way,Bloco 1,school,Sesi 426,,,,,-23.6724895,-46.6127332
131062213,way,Escola Estadual Professor Jácomo Stavale,school,,,Rua Manuel Madruga,,,-23.4963737,-46.6998024
143331526,way,Colégio e Faculdade Morumbi Sul,school,,,Rua Nossa Senhora do Bom Conselho,,,-23.6460299,-46.7578035
146461050,way,Ceu Butantã,school,,,Avenida Engenheiro Heitor Antônio Eiras Garcia,,,-23.5816868,-46.7507145
147416052,way,Fundação Instituto Tecnológico de Osasco,school,,,Rua Camélia,,https://fito.edu.br/,-23.5369003,-46.7911122
148579195,way,EMEF Tenente Alípio Andrada Serpa,school,,,,,,-23.588276,-46.7728357
149065953,way,Escola Estadual Professora Julieta Caldas Ferraz,school,Secretaria da Educação do Estado de São Paulo,,Rua Avelina Nogueira do Prado,+55 11 4701 4673,,-23.6000919,-46.7676972
152746512,way,E.P.G. Antonio Houaiss,school,Prefeitura de Guarulhos,government,,,https://portaleducacao.guarulhos.sp.gov.br/ite/escola/index.php?p=17&unidade=586,-23.4613287,-46.5505533
152910422,way,Escola Estadual Senador João Galeão Carvalhal,school,Secretaria da Educação do Estado de São Paulo,government,Rua do Bosque,+55 11 4990 9292,,-23.6616444,-46.5368553
154074271,way,Escola Estadual Doutor Luíz Lobo Neto,school,Secretaria de Educação do Estado de São Paulo,government,Rua Macaúba,+55 11 4994 0510,,-23.6761394,-46.5345579
154164999,way,Colégio Giordano Bruno,school,,,Rodovia Raposo Tavares,+55 11 3732 6677,,-23.5857538,-46.7539923
154165014,way,Escola Estadual Professor Emygdio de Barros,school,,government,Avenida Nossa Senhora de Assunção,+55 11 3731-7810;+55 11 3735-8418,,-23.5733994,-46.7418311
154229669,way,Escola Municipal de Educação Infantil Emir Macedo Nogueira,school,,,Praça General Araripe de Faria,,,-23.5768519,-46.7309728
154246557,way,Escola Estadual Professor Architiclino Santos - Verdão,school,,,,,,-23.5418011,-46.7593591
154248286,way,Escola Municipal Fernando Pessoa,school,Prefeitura Municipal de Santo André,government,Rua Piramboia,+55 11 3356 7941,,-23.6822882,-46.5376695
154387729,way,Escola Estadual Professor José Calvitti Filho,school,Secretaria de Educação do Estado de São Paulo,government,Rua Senador Queirós,+55 11 4425 6663,,-23.6766484,-46.5488265
154559910,way,Escola Municipal de Ensino Fundamental Desembargador Arthur Whitaker,school,,,Rua André Saraiva,+55 11 3771 5582,,-23.5963998,-46.7358383
155843108,way,Escola Municipal de Ensino Fundamental  Pedro Nava,school,,,Rua Joaquina da Lapa,+55 11 3781 8373,,-23.5791258,-46.7605243
157882826,way,Escola Estadual Professor Lourival Gomes Machado,school,Secretaria da Educação do Estado de São Paulo,government,Estrada de Santo Amaro,+55 11 3781 7621,,-23.5891469,-46.7659221
158597787,way,E.E.Silva Jardim,school,,,Avenida Tucuruvi,,,-23.4814065,-46.6050005
158597788,way,Escola Estadual Albino César,school,Secretaria da Educação do Estado de São Paulo,government,Rua Cajamar,+55 11 2952-2644;+55 11 2952-0549,,-23.4771066,-46.6066879
158597793,way,Escola Estadual Professora Luzia de Godoy,school,Secretaria da Educação do Estado de São Paulo,government,Rua Ausônia,+55 11 2204-3266;+55 11 2952-2402,,-23.4764535,-46.6062255
161661183,way,Escola Estadual Jornalista Wandyck Freitas,school,Secretaria da Educação do Estado de São Paulo,government,Praça Miguel Ortega,+55 11 4701 3545,,-23.6049476,-46.762921
161686094,way,Centro Educacional Unificado Parque Bristol,school,Secretaria da Educação do Município de São Paulo,government,Rua Professor Artur Primavesi,+55 11 22648762,,-23.643694,-46.6083774
161686219,way,Escola Municipal de Ensino Fundamental Hercilia de Campos Costa,school,Secretaria Municipal de Educação,government,Rua José Pereira da Cruz,,,-23.6489444,-46.6052787
162628612,way,Colégio UNASP,school,,,,,,-23.6670167,-46.779689
162629000,way,Colégio UNASP Ensino Fundamental,school,,,,,,-23.6667626,-46.7809478
162629564,way,Acarte,school,,,,,,-23.6662143,-46.7795443
162630688,way,Centro de Convivência Infantil,school,,,,,,-23.6669876,-46.777381
167409115,way,Escola Estadual Sérgio Milliet da Costa e Silva,school,Secretaria da Educação do Estado de São Paulo,government,Rua Jurubatuba,+55 11 4453 8214,,-23.6825699,-46.5107065
170986655,way,Escola Estadual Professor José Heitor Carusi,school,,,Rua Comendador Roberto Ugolini,,,-23.5755429,-46.5887563
170987464,way,Escola Estadual Pandiá Calógeras,school,Secretaria da Educação do Estado de São Paulo,government,Avenida Paes de Barros,+55 11 2605-2759;+55 11 2605-4938,,-23.563728,-46.596402
180396842,way,SESI 221,school,,,,,,-23.6505222,-46.5156806
180578722,way,Escola Estadual Professor Amaral Wagner,school,Secretaria da Educação do Estado de São Paulo,government,Rua dos Aliados,+55 11 4996 1991;+55 11 4996 2090,,-23.6414149,-46.5280001
180626740,way,Escola Estadual Professora Marly Diva Bonfanti,school,Secretaria Estadual da Educação,government,Rua Pedro Osório Filho,,,-23.4736748,-46.6506606
181621289,way,Escola Estadual Ary Barroso,school,Secretaria da Educação do Estado de São Paulo,government,Rua Santa Eudóxia,+55 11 3857 2910,,-23.4977453,-46.6552445
182105844,way,Escola Estadual Tarsila do Amaral,school,Secretaria da Educação do Estado de São Paulo,government,Rua Benedito Alves Turíbio,+55 11 3609 4420,,-23.5567172,-46.8116873
182192478,way,Escola Estadual Professora Annita Atalla,school,,,Rua Lourenço Caetano da Silva,+55 11 2345-6573;+55 11 2345-5768,,-23.5882143,-46.5708039
184328121,way,Centro Educacional Unificado Água Azul,school,,,Avenida dos Metalúrgicos,+55 11 2016-4476;+55 11 3396-3520,,-23.5943624,-46.4065485
185503676,way,EMEF José Maria Lisboa,school,,,,,,-23.6137549,-46.6128502
185503677,way,EMEI Montese,school,,,,,,-23.6127285,-46.6167276
186407519,way,Escola Municipal de Ensino Fundamental Senador Flaquer,school,,,Rua Heloisa Pamplona,+55 11 4229 6077,,-23.6069771,-46.5728602
186407523,way,Escola Estadual Professor Edgar Alves da Cunha,school,Secretaria da Educação do Estado de São Paulo,government,Rua Araraquara,+55 11 4224-3702,,-23.6019336,-46.5745589
186407527,way,Colégio Nossa Senhora Aparecida,school,,,Rua das Valerianas,+55 11 2341-1738;+55 11 2341-1795,https://www.colegioaparecida.com.br/,-23.5988747,-46.5713758
187561205,way,Escola Estadual Lydia Kitz Moreira,school,Secretaria Estadual da Educação do Estado de São Paulo,,Passagem José Rossi,+55 11 2403 3105,,-23.4445754,-46.5254299
189740667,way,Escola da Prefeitura de Guarulhos Pimentas VII,school,,,Avenida Marginal Sul,+55 11 2496 7382,,-23.4625976,-46.4009039
190327472,way,Escola da Prefeitura de Guarulhos Pixinguinha,school,Secretaria da Educação,government,Rua Três,+55 11 2489 0530,,-23.4658336,-46.3927905
193661397,way,Escola Municipal de Educação Fundamental Jardim Fontalis,school,,,Rua Crisântemo,+55 11 2206-8938;+55 11 2267-3052,,-23.4317376,-46.5745582
194907265,way,Escola Municipal de Educação Fundamental Hipólito José da Costa,school,,,Rua Augusto Rodrigues,+55 11 2992-0904;+55 11 2992-8011,,-23.43794,-46.5773697
195346881,way,Colégio Madre Cabrini,school,,,Rua Madre Cabrini,+55 11 5904 1150,https://www.madrecabrini.com.br/,-23.5897965,-46.6363698
195353984,way,Liceu Pasteur,school,,,Rua Mairinque,+55 11 2344-9000,http://www.liceupasteur.com.br/instituicao,-23.5955635,-46.6388449
199120995,way,E.E Maria José,school,,,Rua Treze de Maio,+55 11 3106-5156,http://www.educacao.sp.gov.br/cgrh/escolas/maria-jose/,-23.5558702,-46.6464216
201619632,way,Colégio Salesiano Santa Teresinha,school,,,Rua Dom Henrique Mourão,,,-23.4899826,-46.6332596
202981961,way,Instituto Madre Mazzarello,school,,,Praça Domingos Correia da Cruz,,,-23.4920037,-46.6330656
204739192,way,Colégio Dante Alighieri,school,,,Alameda Jaú,,,-23.563692,-46.6587454
211023612,way,Colégio Imperatriz Leopoldina,school,,,Rua Pedro Doll,+55 11 2950 2211,https://www.colegiocil.com.br/,-23.4910037,-46.6278487
218402589,way,Escola Estadual Professora Heloísa Carneiro,school,,,,,,-23.6600318,-46.6583956
218549982,way,Escola Estadual Miguel Munhoz Filho,school,Secretaria da Educação do Estado de São Paulo,,Avenida Agostinho Rubin,+55 11 5511 0224,,-23.6580862,-46.7598725
218549983,way,Escola Estadual Professora Zenaide Avelino Maia,school,Secretaria da Educação do Estado de São Paulo,,Rua Frederick Banting,+55 11 5512 0688,,-23.6582644,-46.7596283
218893458,way,Colégio Adventista de Taboão da Serra,school,Igreja Adventista do Sétimo Dia,,Rua José André de Morais,+55 11 2763 9400,https://cats.educacaoadventista.org.br/,-23.6010552,-46.7683701
219833372,way,EE João Amos Comenius,school,,,,,,-23.6498443,-46.6574801
222828133,way,CEU Alto Alegre,school,,,Avenida Bento Guelfi,+55 11  2075 1000,,-23.6098839,-46.4268971
222841454,way,Colégio Passionista São Paulo da Cruz,school,,,Avenida Tucuruvi,+55 11 2991 3111,https://saopaulodacruz.passionista.com.br/,-23.480632,-46.6074069
225336594,way,Colégio Albert Sabin,school,,,Avenida Darci Reis,+55 11 3712 0713,http://www.albertsabin.com.br/,-23.5753256,-46.7730655
226011196,way,Escola Estadual José Romeu da Silva,school,Secretaria da Educação do Estado de São Paulo,government,Rua Pascoal Falchi,+55 11 4514 6554,,-23.678018,-46.4428405
226011577,way,Escola Estadual Professora Marta Teresinha Rosa,school,Secretaria da Educação do Estado de São Paulo,government,Avenida Itapark,+55 11 4576 6880,,-23.6768338,-46.4386969
230965366,way,Escola Estadual Professor Mário Casassanta,school,,,Rua Paramú,,,-23.5940228,-46.5665146
230969960,way,EMEI Dom Pedro I,school,,,Praça Nami Jafet,,,-23.5807357,-46.6053265
234572132,way,Escola Estadual Professor José Carlos Dias,school,,,Rua Vichy,,,-23.50409,-46.6599171
234572133,way,ETEC Albert Einstein,school,,,Rua Nova Granada,,,-23.5048534,-46.659447
235561377,way,Escola Estadual Ministro Laudo Ferreira de Camargo,school,Secretaria da Educação do Estado de São Paulo,government,Rua Júlio de Mesquita,+55 11 4178 3772,,-23.6705385,-46.5922633
238522470,way,Centro Educacional Unificado Lajeado,school,,,Rua Manuel da Mota Coutinho,+55 11 3397-6940,http://portal.sme.prefeitura.sp.gov.br/CEU-Lajeado,-23.5447005,-46.4007307
240332855,way,Colégio Etapa,school,Colégio Etapa,,Rua Vergueiro,,,-23.5792908,-46.6391019
240654746,way,Colégio Madre Paula Montalt,school,,,Rua Carlos Weber,+55 11 3836-7369,http://www.madrepaulamontalt.com.br,-23.5308335,-46.7272232
243021372,way,EMEF General Liberato Bittencourt,school,,,Rua Arnaldo Alvernaz Nunes,,,-23.4853712,-46.71313
243168130,way,Escola Estadual Parque Santos Dumont,school,Secretaria da Educação do Estado de São Paulo,government,Rua Olho D'Água dos Borges,+55 11 2466 7001,,-23.4005801,-46.4658271
243168132,way,Escola Estadual Professor Maurício Nazar,school,Secretaria da Educação do Estado de São Paulo,government,Rua João Dias,+55 11 2467 0696,,-23.4031114,-46.4667002
243168133,way,Escola Estadual Professora Salime Mudeh,school,Secretaria da Educação do Estado de São Paulo,government,Avenida Sagres,+55 11 2467 0116,,-23.4091618,-46.4581849
243168135,way,Escola da Prefeitura de Guarulhos Darcy Ribeiro,school,Secretaria da Educação,government,Rua São Fernando,+55 11 2466 0765,,-23.4088743,-46.4667948
243168136,way,Escola da Prefeitura de Guarulhos Dona Benta,school,Prefeitura de Guarulhos,government,Rua Taipú,+55 11 2466 0402,,-23.4094144,-46.4588258
243168138,way,Escola da Prefeitura de Guarulhos Vereador Gilmar Lopes,school,Secretaria da Educação,government,Rua Dias Gomes,+55 11 2466 5909,,-23.4017839,-46.4745002
244102170,way,Escola Estadual Professora Olga Benatti,school,Secretaria da Educação do Estado de São Paulo,government,Rua Ibitirama,+55 11 2341-6656;+55 11 2341-7170,,-23.5927531,-46.5798305
244102178,way,Escola Municipal de Educação Fundamental Irineu Marinho,school,,,Rua Jacaraípe,+55 11 2341-1196;+55 11 2341-7191,,-23.59293,-46.5810547
244246589,way,Escola Estadual República do Paraguay,school,Governo do Estado de São Paulo,government,Rua Carlos Muller,+55 11 2272-9957;+55 11 2273-7722,,-23.5813523,-46.5833684
244608543,way,Colégio Franciscano São Miguel Arcanjo,school,,,Rua Campos Novos,+55 11 2342-5000;+55 11 2341-0516,http://colegiosaomiguel.com.br,-23.5895584,-46.5735269
245484543,way,Externato Rio Branco,school,,,Rua Pio XII,+55 11 4368 0555,https://www.rbranco.com.br/,-23.6580618,-46.5720063
245487692,way,Colégio IESP,school,Instituto de Ensino São Paulo,,Rua Ângela Tomé,+55 11 4368 6822,http://www.colegioiesp.com.br,-23.6559546,-46.5721908
245697745,way,Escola Estadual Alberto Torres,school,Secretaria da Educação do Estado de São Paulo,government,Avenida Vital Brasil,,,-23.5682093,-46.715682
245875844,way,Escola Estadual Júlio de Mesquita Filho,school,Secretaria da Educação do Estado de São Paulo,government,Rua Agostinho Gomes,+55 11 2273 2521,,-23.5751238,-46.6046582
245875845,way,Escola Estadual Professora Cynira Pires dos Santos,school,Secretaria da Educação do Estado de São Paulo,government,Rua Ângela Tomé,+55 11 4367 3957,http://escolacynira.blogspot.com,-23.6551598,-46.5729333
247334479,way,CEI Ipiranga,school,,,Rua Paulo Barbosa,,,-23.5721529,-46.6058654
248864285,way,Escola Estadual Deputado Hugo Lacorte Vitale,school,,,Rua Cantanhede,+55 11 5842 3329,,-23.644522,-46.7853207
248879226,way,Colegio Lidia Camacho,school,,,Avenida Agostinho Rubin,,,-23.6577237,-46.7612244
249711610,way,Centro Educacional Unificado Jaçanã,school,,,,,,-23.4570849,-46.5836834
250608859,way,Escola Estadual Paulo Eiró,school,Secretaria da Educação do Estado de São Paulo,government,Avenida Padre José Maria,+55 11 5687 4090;+55 11 5686 3729,,-23.6536526,-46.7097094
251154240,way,Associacao Brasileira de Jesus Cristo dos Santos Ultimos Dias,school,,,Guarapiranga,,,-23.6860292,-46.7442446
251751149,way,Escola Municipal de Ensino Fundamental Levy Gonçalves de Oliveira,school,,,Rua Professora Renilde de Almeida,,,-23.4788078,-46.8032825
252290006,way,Escola Estadual Professor Amadeu Olivério,school,Secretaria da Educação do Estado de São Paulo,government,Rua Itaúna,+55 11 4368 5381,,-23.6641794,-46.5616837
253226872,way,Escola Estadual Wallace Cockrane Simonsen,school,Secretaria da Educação do Estado de São Paulo,government,Rua Tasman,+55 11 4123 1448,,-23.6895185,-46.5559138
254742097,way,Escola Estadual 20 de Agosto,school,Secretaria de Educação do Estado de São Paulo,government,Avenida Kennedy,+55 11 4330 4280,https://negocios.abctudo.com.br/sbc/brasa-bar/,-23.68146,-46.5579941
256239935,way,Escola Municipal de Educação Básica Professor Geraldo Hypolito,school,Secretaria Municipal de Educação,government,Rua Continental,+55 11 4122 1465,,-23.6854782,-46.5625605
258089101,way,Colégio Notre Dame Rainha dos Apóstolos,school,,,Rua Ouvidor Portugal,,,-23.5726692,-46.6122777
258503447,way,Centro Educacional Unificado Uirapuru,school,,,Rua Nazir Miguel,+55 11 3788 7700,http://portal.sme.prefeitura.sp.gov.br/Main/Noticia/Visualizar/PortalSMESP/CEU-Uirapuru--Informacoes-Gerais,-23.6001833,-46.7891659
259804865,way,E.E Engenheiro Octávio Marcondes Ferraz,school,Secretaria da Educação do Estado de São Paulo,,Avenida Valdemar Tietz,+55 11 2742-1291;+55 11 2742-8524,,-23.5512846,-46.4813994
260186222,way,Escola Estadual Rudge Ramos,school,Secretaria da Educação do Estado de São Paulo,government,Avenida Presidente Arthur Bernardes,+55 11 4365 1190,,-23.6676247,-46.5666985
260186681,way,Escola Municipal de Educação Básica Olavo Bilac,school,Secretaria Municipal da Educação,government,Avenida Doutor Carlos de Campos,+55 11 4362 3576,,-23.6669483,-46.5672787
260868566,way,Colégio Palmarino Calabrez,school,,,,,,-23.5471496,-46.408292
260874616,way,EMEF 25 de Janeiro,school,,,Rua Caranaíba,,,-23.5444598,-46.4096676
260876040,way,Escola Estadual Pedro Taques,school,,,,,,-23.5447869,-46.4143337
260876083,way,Colégio Oliveira Telles,school,,,,,,-23.5482363,-46.4078872
261015321,way,Escola Estadual Professora Emília de Paiva Meira,school,Secretaria da Educação do Estado de São Paulo,government,Rua Porto Xavier,+55 11 2286 4754,,-23.5410243,-46.4544124
265727475,way,Escola Estadual Rodrigues Alves,school,Governo do Estado de São Paulo,government,,,,-23.5700551,-46.6464295
265887572,way,Colégio Eduardo Gomes,school,Rotary,private_non_profit,Rua Major Carlos Del Prete,+55 11 4229 2919,https://colegioeduardogomes.com.br/,-23.6180757,-46.577396
267121808,way,Escola Estadual Doutor José Américo de Almeida,school,Secretaria da Educação do Estado de São Paulo,government,Rua Ramon Bayeu,+55 11 3735-4851,,-23.571712,-46.7478177
267573374,way,Escola Estadual Professor Clóvis Renê Calabrez,school,Secretaria da Educação do Estado de São Paulo,government,Rua Freguesia da Cachoeira,+55 11 2555-4413,,-23.5325496,-46.3995984
269627998,way,Escola Municipal de Ensino Fundamental Professor Roberto Mange,school,,,Rua José Cerqueira Bastos,,,-23.5856179,-46.7580818
274712202,way,Escola Estadual Padre Antônio Vieira,school,Secretaria da Educação do Estado de São Paulo,government,Avenida Cruzeiro do Sul,+55 11 2950 6476,,-23.5016528,-46.6252565
274859598,way,E.E Maestro Fabiano Lozano,school,,,Rua Humberto I,,,-23.5855852,-46.6411816
274860937,way,Colégio Benjamin Constant,school,,,,,,-23.5788548,-46.6415093
276418119,way,Escola Estadual Professora Clorinda Danti,school,Secretaria da Educação do Estado de São Paulo,government,Avenida Corifeu de Azevedo Marques,,,-23.5713929,-46.7391687
276541976,way,Escola Estadual Deputado Rubens do Amaral,school,Secretaria da Educação do Estado de São Paulo,government,Rua Felipe Cardoso,+55 11 5073-0730,,-23.6171678,-46.6171794
277083168,way,E.E Brasílio Machado,school,,,Rua Afonso Celso,,,-23.5941079,-46.6343671
277402172,way,EMEF Professora Eda Mantoanelli,school,,,Rua Ivai,+55 11 4220 5551;+55 11 4220 4699;+55 11 4220 3155,,-23.6334975,-46.5568308
282567352,way,Escola Municipal Orquídea,school,Secretaria Municipal de Educação,government,Rua Topázio,+55 11 4666 7733,,-23.6954896,-46.8117558
283272883,way,Escola Estadual Professor José Escobar,school,Secretaria da Educação do Estado de São Paulo,government,Rua Greenfeld,+55 11 2273 5046,,-23.6016585,-46.6022333
287537093,way,Escola Estadual Professor José Monteiro Boanova,school,,,,+55 11 3832-7257,,-23.526015,-46.7227573
288398869,way,Escola Estadual Professora Julieta Vianna Simões de Sant´Anna,school,Secretaria da Educação do Estado de São Paulo,government,Avenida Rosa Aizemberg,+55 11 4343 6988,,-23.7018027,-46.5838499
290754685,way,Escola Municipal de Educação Básica Castro Alves,school,Secretaria de Educação Municipal,government,Rua Luiz Ferreira da Silva,+55 11 4122 5666,,-23.6808729,-46.5582182
290782543,way,Colégio Luterano São Paulo,school,Congregação Evangélica Luterana Redentor,private,Rua Professor Vilalva Júnior,+55 11 2915 7966,https://www.luterano.com.br/,-23.615964,-46.6023152
290782873,way,Colégio Virgem Poderosa,school,Companhia das Filhas da Caridade de São Vicente de Paulo,religious,Praça Frederico Ozanan,+55 11 2219 6320,https://www.colegiovirgempoderosa.com.br/,-23.6151493,-46.6029267
291413470,way,Escola Estadual Castro Alves,school,,,Rua Francisco Bruno,,,-23.4853762,-46.6397664
291798752,way,Ieburix,school,,,Avenida Senador Fláquer,+55 11 4125 1700,https://ieburix.com.br/,-23.697437,-46.5592435
292186247,way,Escola Estadual Professora Heloísa de Assumpção,school,Secretaria da Educação do Estado de São Paulo,government,Avenida Comandante Sampaio,+55 11 3608 4279,,-23.5252928,-46.8049683
292224103,way,Escola Estadual Professor Gualter da Silva,school,Secretaria da Educação do Estado de São Paulo,government,Rua Anatole France,+55 11 2215 7433,,-23.6058241,-46.6030523
292983773,way,Escola Municipal de Educação Básica Lauro Gomes,school,Secretaria Municipal de Educação,government,Rua Piagentini,+55 11 4368 1865,https://www.saobernardo.sp.gov.br/servicos/entidade_completa.asp?cod=78&uni=SE-1,-23.6556901,-46.5703906
294899643,way,Centro Educacional Unificado Professora Dulce Salles Cunha Braga,school,Secretaria Municipal de Educação,government,Avenida Engenheiro Armando de Arruda Pereira,+55 11 5624 8739,,-23.6679032,-46.6355874
294901847,way,EMEB Professor Francisco Daniel Trivinho,school,Secretaria Municipal de Educação,government,Praça Lauro Michels,+55 11 4044 8598,,-23.6860664,-46.6203587
295103619,way,E.E Presidente Salvador Allende Gossens,school,,,Rua Domingos Lisboa,+55 11 2286-4775;+55 11 2944-5277,,-23.5379281,-46.4337783
297828922,way,Escola Municipal de Ensino Fundamental Cacilda Becker,school,Secretaria de Educação,government,Avenida Engenheiro Armando de Arruda Pereira,+55 11 5021 7888,,-23.6454445,-46.6404476
298691899,way,Escola Estadual Conselheiro Crispiniano,school,Secretaria da Educação do Estado de São Paulo,government,Rua Arminda de Lima,+55 11 2409 0800,,-23.4616706,-46.534846
298699142,way,Escola Estadual Professor Frederico de Barros Brotero,school,Secretaria da Educação do Estado de São Paulo,government,Rua Jaiminho,+55 11 2409 2042,,-23.4577246,-46.5346804
298822855,way,Escola Senai Hermenegildo Campos Almeida,school,SENAI,,Avenida Doutor Renato de Andrade Maia,+55 11 2461 6750,https://guarulhos.sp.senai.br/,-23.4569264,-46.5277961
298925982,way,Escola Estadual Jornalista Rodrigo Soares Júnior,school,Secretaria da Educação do Estado de São Paulo,government,Rua João Coelho de Souza,+55 11 4075 4192,,-23.6865782,-46.5930818
300403908,way,Escola Estadual Professora Anésia Loureiro Gama,school,Secretaria da Educação do Estado de São Paulo,government,Rua Eduardo de Oliveira,+55 11 4368 3290,,-23.6746633,-46.5620668
301002880,way,Escola Estadual Stefan Zweig,school,,,Rua Genaro Arilla Arensanz,+55 11 2154-4166;+55 11 2213-0020,,-23.5792971,-46.5545604
302128956,way,Escola Estadual Professor Délcio de Souza Cunha,school,Secretaria da Educação do Estado de São Paulo,government,Rua Belize,+55 11 4075 3899,,-23.6803175,-46.6086576
302147490,way,Bloco 2 e 3,school,Sesi 426,,,,,-23.6725114,-46.6120648
304692788,way,E.E Francisco de Assis Reys,school,Secretaria da Educação do Estado de São Paulo,government,Rua Bom Pastor,+55 11 2274-3458;+55 11 2274-6611,,-23.5903249,-46.6075759
307350545,way,Pen Life International School,school,Sistema Etapa,private,Avenida Piraporinha,+55 11 5555 3455,https://penlife.com.br/,-23.688523,-46.5714196
310355007,way,Escola Estadual Professor Ismael da Silva Júnior,school,Secretaria da Educação do Estado de São Paulo,government,Rua João Batista de Almeida,+55 11 4178 1490,,-23.6599714,-46.5974701
310735821,way,Escola Municipal de Educação Básica Professora Annita Magrini Guedes,school,,,Rua Itapeva,+55 11 4330 5658,,-23.6885159,-46.5457112
310794341,way,Colégio Porto União,school,,,Rua José Alves Cunha Lima,+55 11 3721 5863,https://www.colegioportouniao.com.br/,-23.5676859,-46.7437101
313068643,way,Colégio Adventista de Santo André,school,,,,,,-23.6680008,-46.5282586
313152073,way,Liceu Jardim,school,Pueri Domus,private,Rua Silveiras,+55 11 4993 5200,https://liceujardim.com.br/,-23.6531043,-46.5447052
313187829,way,Escola Estadual Doutor Américo Brasiliense,school,Secretaria da Educação do Estado de São Paulo,government,Praça IV Centenário,+55 11 4438 6071;+55 11 4432 2021,,-23.6559683,-46.5307685
313485473,way,Instituto Sagrada Família,school,Associação Beneditina de Educação e Assistência Social – ABEAS,religious,Rua Manduri,+55 11 4422 4430,https://institutosagradafamilia.org.br/,-23.6788541,-46.5395655
314595537,way,Escola Municipal Professor João de Barros Pinto,school,Prefeitura Municipal de Santo André,government,Rua Londres,+55 11 3356 8101,,-23.6239446,-46.5387973
317850847,way,Escola Estadual Professora Dulce Ferreira Boarin,school,,,Rua Doutor Fleury Silveira,,,-23.4901579,-46.6705127
319967134,way,Escola Estadual  Professor Paulo Nogueira,school,Secretaria da Educação do Estado de São Paulo,government,Rua Bartolomeu de Gusmão,+55 11 2409 4992,,-23.4752977,-46.532286
320297741,way,Escola Estadual Vereador Antônio de Ré,school,Secretaria da Educação do Estado de São Paulo,government,Rua da Penha,+55 11 2468-0231,,-23.4617886,-46.5145453
321228423,way,Escola Estadual General José Artigas,school,Secretaria da Educação do Estado de São Paulo,government,Avenida Getúlio Vargas,+55 11 4066 6577,,-23.695323,-46.5978525
321568382,way,Escola Estadual Bibliotecária Maria Luísa Monteiro da Cunha,school,Secretaria da Educação do Estado de São Paulo,,Rua Inácio Manuel Álvares,+55 11 3781 8066,,-23.5808061,-46.7659209
321568383,way,Colégio Nicolau Kerpen,school,,,Avenida Diogo de Azevedo,+55 11 3782 7411,https://www.nicolaukerpen.com.br/,-23.5816923,-46.76554
321926508,way,Escola Estadual Erasmo Batista Silva de Almeida,school,Secretaria da Educação do Estado de São Paulo,government,Rua José Clemente Pereira,+55 11 4066 5629,,-23.6965431,-46.5937063
322141438,way,Escola Estadual Professora Antonieta Borges Alves,school,Secretaria da Educação do Estado de São Paulo,,Avenida Dom Pedro I,+55 11 4056 6382,,-23.6961901,-46.61712
322148290,way,Escola Municipal de Educação Infantil Aluísio de Almeida,school,Prefeitura do Município de São Paulo,government,,,,-23.5873272,-46.7677599
323309986,way,EMEI Francisca Júlia da Silva,school,,,Rua Maria Cortada Codorniz,+55 11 5831-6378;+55 11 583-10136,,-23.6892196,-46.7645635
324994550,way,"EMEF ""Bel"" Mario Moura e Albuquerque",school,Prefeitura de São Paulo,,Rua Humberto de Almeida,+55 11 5514 3074,,-23.6715658,-46.7474293
326316588,way,Escola Municipal de Educação Fundamental Presidente Kennedy,school,,,Rua Acuruí,+55 11 2673-3014;+55 11 2673-4196,,-23.5622533,-46.5526399
326316589,way,Escola Estadual José Marques da Cruz,school,,,Rua Aracê,,,-23.5611112,-46.5423141
326316690,way,Escola Estadual Professora Irene de Lima Paiva,school,,,Rua Lutécia,+55 11 2097-5384,,-23.5608275,-46.5412599
335102143,way,Escola Estadual Professor José Bonifácio Andrada e Silva Jardim,school,Secretaria da Educação do Estado de São Paulo,government,Rua André Furtado de Mendonça,+55 11 2581 3993,,-23.4796619,-46.3846962
337495556,way,Escola de Samba Vila Maria,school,,,,,,-23.5086994,-46.5770833
338156298,way,CEU Paraisópolis - Professora Marisa Motta,school,,,Rua Doutor José Augusto de Souza e Silva,,,-23.6228034,-46.7277402
338243610,way,Colégio Renovação,school,,,Rua Bento de Faria,+55 11 5073-5231,http://www.renovacao.com.br/,-23.622134,-46.6214265
339039692,way,Piaso Colégio,school,,,Avenida Piraporinha,+55 11 4077 2471,https://www.colegiopiaso.com.br/,-23.6887752,-46.5913138
343288355,way,Escola Estadual Maria Leoni,school,Secretaria da Educação do Estado de São Paulo,government,Praça Carmem Miranda,+55 11 2408 6080,,-23.455463,-46.5250839
346946222,way,E.E Doutor Miguel Vieira Ferreira,school,Governo do Estado de São Paulo,government,Rua Francisco de Medeiros Jordão,+55 11 2201 5595,,-23.4923454,-46.5856108
349182600,way,Escola Estadual Ministro Horacio Lafer,school,Secretaria da Educação do Estado de São Paulo,government,Rua Dias da Silva,,,-23.5140328,-46.5843129
351248363,way,Escola Estadual Professor José Carlos Antunes,school,Secretaria da Educação do Estado de São Paulo,government,Avenida Dom Pedro I,+55 11 4455 6351,,-23.694127,-46.5061149
357569173,way,Colégio Nossa Senhora do Rosário,school,,,Rua Domingos de Moraes,+55 11 5589 5444,https://www.rosarionet.com.br/,-23.6023023,-46.6374471
358461388,way,Pueri Domus,school,,private,Rua Verbo Divino,,,-23.6346109,-46.7058306
358461394,way,Colégio Friburgo,school,,,Avenida João Dias,,,-23.6430551,-46.703828
359436031,way,CISBC,school,Objetivo,,Avenida Imperatriz Leopoldina,,,-23.70342,-46.5504377
360349088,way,Escola Municipal de Educação Infantil Engenheiro Goulart,school,Secretaria Municipal da Educação,public,Praça Gajé,+55 11 2621 3757,,-23.4989099,-46.5197501
365376777,way,Colégio Santa Cruz,school,Congregação da Santa Cruz,private,Avenida Arruda Botelho,+55 11 3024-5199;+55 11 3022-9073;+55 11 3024-5197,https://www.santacruz.g12.br/,-23.5507671,-46.7170358
365378246,way,Escola Vera Cruz,school,,,Praça Professora Emília Barbosa Lima,,,-23.546357,-46.7020228
365911767,way,Escola Parque – EMEI Cleide Rosa Auricchio,school,,,Rua Jayme da Costa Patrão,,https://educacao.saocaetanodosul.sp.gov.br/,-23.6166797,-46.5719419
366258125,way,EMEF Celso Leite Ribeiro Filho,school,Secretaria da Educação,,Rua Humaitá,+55 11 3106 9484,,-23.5572587,-46.64172
369575297,way,Escola Estadual Fábio Eduardo Ramos Esquível,school,Secretaria da Educação do Estado de São Paulo,government,Rua Orense,+55 11 4056 5112,,-23.6799159,-46.6216059
371980078,way,Escola Municipal de Ensino Fundamental Bartolomeu Bueno da Silva,school,,,Rua Maranhão,+55 11 4224 3977,,-23.6213439,-46.5729243
372058270,way,EMEI Professor Pedro Álvares Cabral Moraes,school,,,Rua Leonor Fernandes Costa Zacharias,,,-23.5215626,-46.6077101
372287600,way,Escola Estadual Professora Joana Motta,school,Secretaria da Educação do Estado de São Paulo,government,Rua Espírito Santo,+55 11 4232 4915,,-23.6284287,-46.5737155
372287602,way,EMEF Sylvio Romero,school,,,,,,-23.6273634,-46.5644954
377633883,way,Escola Professor Norberto Alves Rodrigues,school,Governo do Estado de São Paulo,government,Rua Cármem Escabia Motta Coelho,,,-23.6744462,-46.7528365
378026888,way,Escola Estadual Ana Rodrigues de Liso,school,Secretaria da Educação do Estado de São Paulo,government,Rua Baependi,+55 11 4187 3439,,-23.5369354,-46.8247792
379035895,way,EMEF Júlio de Mesquita,school,,,Rua Doutor José Aires Neto,,,-23.5814114,-46.7358539
379630195,way,Clinica de saude Escola  Alexandre Vranjac,school,Santa Casa de São Paulo,public,Avenida Doutor Abraão Ribeiro,+55 01 13466 2502,https://www.santacasasp.org.br/portal/site/centro-de-saude-escola-barra-funda,-23.5215682,-46.6592785
380879108,way,Escola Panamericana,school,,,Avenida Angélica,,,-23.5489826,-46.6597054
381354451,way,Colégio Rio Branco,school,,,Avenida Higienópolis,,https://crb.g12.br/site/default.aspx,-23.5405691,-46.6603777
381589497,way,Ação Educativa,school,,,Rua General Jardim,+55 11 3151-2333,https://www.acaoeducativa.org.br/,-23.5443947,-46.6509887
382364373,way,Senac Sede,school,,,Rua Doutor Vila Nova,,,-23.5458524,-46.6504878
382501793,way,Centro Educacional Unificado Perus,school,,,Rua Bernardo José de Lorena,,,-23.4064016,-46.7518295
382710740,way,E.E. Eugênio Mariz de Olveira Netto,school,Governo do Estado de São Paulo,,,,,-23.6930062,-46.7422254
385054045,way,Escola Municipal de Ensino Fundamental Desembargador Amorim Lima,school,Prefeitura do Municipio de Sao Paulo,,Rua Professor Vicente Peixoto,,http://eolgerenciamento.prefeitura.sp.gov.br/frmgerencial/NumerosEscola.aspx?Cod=092754,-23.5743968,-46.7289407
385654085,way,Escola Estadual Cacilda Becker,school,Secretaria da Educação do Estado de São Paulo,,Rua Capitão José Amaral,+55 11 3978-1029,,-23.4798213,-46.6918437
386028584,way,Escola Estadual Professor Isaltino de Mello,school,Secretaria da Educação do Estado de São Paulo,government,Rua Toninhas,+55 11 5632 2233,,-23.6746336,-46.687671
390310451,way,EMEI Doutora Gina de Martino,school,,,Praça Dona Joana,,,-23.4781059,-46.6265674
391656617,way,E.E Orestes Guimarães,school,,,Rua Canindé,,,-23.5327559,-46.6241943
392764788,way,Escola Estadual Professor Lael de Moura Prado,school,,,Avenida Professor Castro Junior,,,-23.4973444,-46.5742167
392821354,way,E.E Professor Sebastião de Souza Bueno,school,Governo do Estado de São Paulo,government,Rua Francisco de Medeiros Jordão,+55 11 2605 4992,,-23.4921241,-46.5862518
392825062,way,E.E Doutor Luiz Lázaro Zamenhof,school,,,Rua Eurico Sodré,+55 11 2201-5018,,-23.4890577,-46.5809132
401956765,way,Escola Estadual José Chediak,school,Secretaria da Educação do Estado de São Paulo,government,Avenida do Oratório,+55 11 2213-6555;+55 11 2216-7909,,-23.5927149,-46.5471768
403127467,way,E.E. Comendador Alfredo Vianello Gregório,school,,,Rua Felipe de Veras,,,-23.6649638,-46.7307658
404320410,way,Escola Estadual Professor Antônio Ruy Cardoso,school,Secretaria de Educação do Estado de São Paulo,,Avenida Martiro Ângelo Derenze,+55 11 4137 6206,,-23.6239105,-46.7978217
404668075,way,Escola Municipal de Ensino Fundamental ProfessoraTherezinha Volpato Baro,school,Secretaria Municipal de Educação,government,Avenida Cid Nelson Jordano,+55 11 4138 5175,,-23.629807,-46.8000037
404712047,way,Escola Municipal de Educação Infantil Cebolinha,school,Secretaria Municipal de Educação,,Rua Manoel Cassiano de Moraes,+55 11 4138 4734,,-23.6320389,-46.8037552
404713904,way,Escola Estadual Reverendo Denoel Nicodemos Eller,school,Secretaria da Educação do Estado de São Paulo,government,Rua Luiz de Queirós,+55 11 4137 1330,,-23.6325833,-46.803397
404811102,way,Escola da Vila,school,,,Rua Barroso Neto,,https://www.vila.com.br/,-23.5718032,-46.7229873
405469579,way,Escola Estadual Professora Wanda Bento Gonçalves,school,Governo do Estado de São Paulo,government,Rua Petrogrado,+55 11 4472 3215,,-23.634442,-46.4918555
405511660,way,Escola Municipal Reverendo Simão Salém,school,Prefeitura Municipal de Santo André,government,Rua Las Palmas,,,-23.6523917,-46.5565327
405512397,way,Escola Estadual Professor Rener Caran,school,Governo do Estado de São Paulo,government,Avenida Palmares,+55 11 4991 2019,,-23.6519566,-46.5612219
405513153,way,Escola Estadual Professora Ordânia Janone Crespo,school,Governo do Estado de São Paulo,government,Rua Comendador Antônio Benvenuto Bataglia,+55 11 4421 7333,,-23.6482118,-46.5532116
405513328,way,Escola Estadual Padre Agnaldo Sebastião Vieira,school,Governo do Estado de São Paulo,government,Rua Ubatuba,+55 11 4438 6300,,-23.6553393,-46.5455037
405513456,way,Escola Municipal Odylo Costa Filho,school,Prefeitura Municipal de Santo André,government,Rua Ministro Calógeras,+55 11 3356 8109,,-23.6549005,-46.5446618
405513792,way,Escola Municipal Professor Antônio de Campos Gonçalves,school,Prefeitura Municipal de Santo André,government,Rua das Laranjeiras,+55 11 4421 5739,,-23.6408278,-46.5464017
405515744,way,Escola Estadual Valdomiro Silveira,school,Secretaria da Educação do Estado de São Paulo,government,Rua Agostinho de Campos,+55 11 4451 5500,,-23.6855968,-46.4985278
405515836,way,Escola Municipal Carlos Vicente Cerchiari,school,Prefeitura Municipal de Santo André,government,Avenida Queirós Filho,+55 11 4458 0387;+55 11 4458 1950,,-23.6779462,-46.5014026
405515917,way,Escola Estadual Professora Ondina Rivera Miranda Cintra,school,Secretaria da Educação do Estado de São Paulo,government,Rua Marquês de Alegrte,+55 11 4458 1746;+55 11 4458 1970,,-23.6743011,-46.5017061
405516157,way,Escola Estadual Doutor Carlos de Campos,school,Secretaria de Educação do Estado de São Paulo,government,,,,-23.6701928,-46.5064419
405786408,way,Colégio São Luís,school,Companhia de Jesus,private,Rua Haddock Lobo,,https://www.saoluis.org/,-23.5564399,-46.6608632
406071058,way,Escola Municipal de Ensino Fundamental Paulo Freire,school,,,Avenida Arlindo Genário de Freitas,+55 11 4138 5183,,-23.63273,-46.7834375
406340496,way,Colégio Jean Piaget,school,,,Rua Delmiro,+55 11 2401 3511,https://www.colegiojeanpiaget.com.br/,-23.4289827,-46.5232309
406458931,way,Escola Municipal de Ensino Fundamental Aracy de Abreu Pestana,school,Secretaria Municipal de Educação,,Rua Professora Zeicy Aparecida Nogueira Baptista,+55 11 4137 2834,,-23.6287994,-46.7855479
406467563,way,Escola Estadual Doutor Generoso Alves de Siqueira,school,Secretaria da Educação do Estado de São Paulo,government,Avenida Dom Pedro I,+55 11 4455 7734,,-23.6863812,-46.5079827
406468338,way,Escola Estadual Doutor Manoel Grandini Casquel,school,Secretaria da Educação do Estado de São Paulo,government,Rua das Hortências,+55 11 4451 4242,,-23.6900737,-46.5164882
406468788,way,Escola Estadual Antonio Adib Chammas,school,Secretaria da Educação do Estado de São Paulo,government,Rua Professor Oliveira Campos,+55 11 4455 5319,,-23.6980804,-46.5129222
406468998,way,EMEIEF Professor Júlio Nunes Nogueira,school,,,Rua Atlas,+55  11 3356 8121,,-23.6961708,-46.5170593
406469785,way,Escola Estadual Oito de Abril,school,Secretaria da Educação do Estado de São Paulo,government,Rua das Hortências,+55 11 4453 8875,,-23.682137,-46.5169872
406470678,way,EMEIEF Professor Antônio Virgílio Zaniboni,school,,,Avenida Áurea,+55 11 3356 7997,,-23.6915099,-46.5170892
406485333,way,Escola Estadual Professora Carlina Caçapava de Mello,school,Secretaria da Educação do Estado de São Paulo,government,Praça Ronaldo Ribeiro de Sá,+55 11 4996 3911,,-23.6362686,-46.5335143
406485599,way,Escola Estadual Professor Adamastor de Carvalho,school,Secretaria da Educação do Estado de São Paulo,,Avenida Utinga,+55 11 4976 1588,,-23.6244726,-46.5363878
406487448,way,Escola Estadual Padre Aristides Greve,school,Secretaria da Educação do Estado de São Paulo,,Rua Rossini,+55 11 4997 9601,,-23.6199512,-46.5293417
406488006,way,Escola Estadual Doutor Carlos Garcia,school,Secretaria da Educação do Estado de São Paulo,,Rua Sidnei,+55 11 4461 5679,,-23.6219153,-46.5295874
406488473,way,Escola Estadual Professor Gabriel Gonçalves,school,Secretaria da Educação do Estado de São Paulo,,Rua Ciro Monteiro,+55 11 4997-9608,,-23.6165401,-46.5235132
406489414,way,Escola Municipal Camilo Pedutti,school,Prefeitura Municipal de Santo André,government,Avenida Martim Francisco,+55 11 4461 4656,,-23.6220487,-46.5200653
407374524,way,Escola Estadual Keizo Ishihara,school,,,Rua Mário Gessulio,+55 11 3721-9374,,-23.5753186,-46.7247355
409105572,way,Escola Municipal de Educação Fundamental Professora Maria Alice Borges Ghion,school,Secretaria Municipal de Educação,government,Rua Helena Moraes de Oliveira,+55 11 4701 0722,,-23.6144745,-46.7826692
409120908,way,Escola Estadual Professora Maria Apparecida Nigro Gava,school,Secretaria da Educação do Estado de São Paulo,,Rua Mário Latorre,+55 11 4701 1110,,-23.6205123,-46.7836997
409120909,way,Escola Estadual Professora Lúcia de Castro Bueno,school,Secretaria da Eduacação do Estado de São Paulo,,Rua Mário Latorre,+55 11 4701 0027,,-23.6209191,-46.784593
409127853,way,Escola Estadual Professor Adenilson dos Santos Franco,school,Secretaria da Educação do Estado de São Paulo,,Rua Virginia Placidina da Conceição,+55 11 4137 4608,,-23.6244475,-46.7836584
409274896,way,Escola Municipal de Ensino Fundamental Vinícius de Moraes,school,Secretaria Estadual de Educação,government,Rua Paulo Augusto de Andrade,,,-23.6268221,-46.8095323
409310826,way,Escola Estadual Antônio Inácio Maciel,school,Secretaria da Educação do Estado de São Paulo,government,Avenida Doutor José Maciel,+55 11 4701 9680,,-23.6114075,-46.761591
409613121,way,Escola Estadual Zeicy Apparecida Nogueira Baptista,school,Secretaria da Educação do Estado de São Paulo,government,Rua José Domingues de Moraes,+55 11 4701 3954,,-23.6228285,-46.7716354
409621568,way,Escola Municipal de Ensino Fundamental  Machado de Assis,school,,,Estrada das Olarias,+55 11 4137 9574,,-23.6335245,-46.7918326
409768129,way,Escola Estadual Professora Cristina Fitipaldi,school,Governo do Estado de São Paulo,government,,,,-23.6652053,-46.54785
409769300,way,Escola Estadual Marechal Juarez Távora,school,Governo do Estado de São Paulo,government,Rua das Figueiras,+55 11 4421 7064,,-23.637266,-46.5474814
410951347,way,Escola Municipal de Educação Fundamental Maria José Luizetto Buscarini,school,Secretaria Municipal de Educação,government,Rua Vicente Leporace,+55 11 4137 2373,,-23.6307014,-46.8097452
411487109,way,E.E  Professor Francisco Vicente Gonçalves Lopes,school,Secretaria da Educação do Estado de São paulo,government,Rua Rodolfo Schult,+55 11 4787 8900,,-23.6175712,-46.7643484
416213687,way,Centro Unificado Educacional Cardeal Dom Agnelo Rossi,school,Secretaria Municipal de Educação,government,Avenida Carlos Lacerda,+55 11 5843 4800,http://portal.sme.prefeitura.sp.gov.br/Main/Page/PortalSMESP/CEU-Campo-Limpo,-23.637464,-46.779983
417006650,way,Instituto de Educação Boni Consilii,school,,,Alameda Barão de Limeira,+55 11 3660-0855;+55 11 3660-0850,https://boniconsilii.com.br,-23.5304446,-46.6515106
418202290,way,Escola Estadual Professor João Caly,school,Secretaria da Educação do Estado de São Apulo,government,Rua Antônio Maciel de Oliveira,+55 11 4701 2331,,-23.6094936,-46.7775968
419917805,way,Escola Estadual Marechal Henrique Teixeira Lott,school,Secretaria da Educação do Estado de São Paulo,government,Rua Ubiratan,+55 11 4704 3799,,-23.6485207,-46.8174197
419938322,way,Escola Municipal Maria Josefina de Almeida Carvalho,school,,,Rua Henfil Henrique de Souza Filho,,,-23.6655993,-46.8050293
419985178,way,Escola Municipal Reynaldo Ramos Saldanha da Gama,school,,,Rua Narume Nakaiama,+55 11 4783 1008,,-23.6454734,-46.819189
420064495,way,Escola Paulista da Magistratura,school,,,Rua da Consolação,,,-23.5510619,-46.6547457
420081233,way,Anglo Sergipe,school,,,Rua Sergipe,+55 11 3273-6100,https://www.cursoanglo.com.br/,-23.549669,-46.6546758
420089092,way,CAPE,school,,,Rua Dona Veridiana,,,-23.5421061,-46.6513453
420138392,way,Escola Estadual Francisco Milton de Andrade,school,Secretaria da Educação do Estado de São Paulo,government,Rua Fabrício Ricardi Marques de Oliveira,+55 11 2458 0622,,-23.4226585,-46.5551806
420139522,way,Centro Municipal de Educação Infantil Patrícia Galvão - Pagú,school,,,Rua Natalina de Melo Gouveia Norkivicius,+55 11 2456 7844,,-23.4221219,-46.5557989
420411765,way,Centro Educacional Unificado Feitiço da Vila,school,Secretaria Municipal de Educação,,Rua Feitiço da Vila,,,-23.685887,-46.7935795
420429388,way,FAM Faculdade das Américas,school,,,,,,-23.5535402,-46.6549614
420430077,way,Nossa Senhora da Consolação,school,,,Rua Gravataí,,,-23.5486564,-46.6479439
420434868,way,Escola Estadual Professora Marina Cintra,school,,,Rua da Consolação,,,-23.5499176,-46.6531981
421159466,way,Escola Estadual Professor Eliseu Jorge,school,Secretaria de Educação do Estado de São Paulo,government,Rua Maria do Rosário,+55 11 4638 3037,,-23.5184202,-46.3658717
421359478,way,Escola Estadual João Kopke,school,Governo do Estado de São Paulo,government,Alameda Cleveland,,,-23.5324175,-46.641987
421359665,way,Liceu Coração de Jesus,school,Salesianos,,Alameda Dino Bueno,+55 11 3221-3622,http://www.liceudesaopaulo.com.br,-23.5320947,-46.6437328
421387063,way,Colégio São José dos Padres de Sion,school,,,Rua Agostinho Gomes,+55 11 3473-8034;+55 11 3473-8039,https://colegiosionipiranga.org.br,-23.5875079,-46.6036002
421497206,way,Instituto Nacional de Educação a Distância,school,,,Praça Marechal Deodoro,+55 11 3823-2222,,-23.5333396,-46.6556116
422263551,way,Escola Estadual Doutor Umberto Luiz D'Urso,school,Secretaria da Educação do Estado de São Paulo,,Rua Magnólia Azul,+55 11 2569-5324,,-23.5127256,-46.3891994
422263552,way,Centro Educacional Unificado João Antônio da Silva,school,,,Rua Daniel Müller,+55 11 2563-6247;+55 11 2563-6256,,-23.5132791,-46.3898344
422432318,way,E. E. Inspetor Raimundo Serafim de Lima,school,,,,,,-23.6609062,-46.7360331
422493051,way,Escola Estadual Professora Lais Amaral Vicente,school,Secretaria da Educação do Estado de São Paulo,government,Rua Taquacetuba,+55 11 5011 2648,,-23.6510162,-46.6496404
422652307,way,Escola Estadual Professor José Maria Reys,school,Governo do Estado de São Paulo,government,Avenida Conceição,+55 11 2201 9762,http://www.educacao.sp.gov.br/cgrh/escolas/jose-maria-reys-prof/,-23.497163,-46.5874453
423509575,way,Colégio J. R. Passalacqua,school,,,Rua João Passalaqua,,,-23.5547971,-46.6452702
423735379,way,Colégio Vital Brazil,school,,,Rua Rocha,,,-23.5570606,-46.6500328
424125005,way,EE Comandante João Ribeiro de Barros,school,Secretaria Estadual de Educação,government,Rua Juazeiro do Norte,+55 11 2412 0465,,-23.4491448,-46.4738079
425388801,way,Escola Estadual Marechal Carlos Machado Bitencourt,school,,,Rua Marilena Rampinelli,+55 11 2421 3625,,-23.50026,-46.5543967
425407697,way,EMEF Enéas Carvalho Aguiar,school,Prefeitura Municipal de São Paulo,government,Rua Francisco Franco Machado,,,-23.492487,-46.5737237
425539198,way,Escola Municipal de Educação Fundamental Padre Luiz Capra,school,,,Rua Bush,+55 11 4232 4727,,-23.6425009,-46.5683951
425559359,way,Colégio Piaget,school,J.Piaget Sistema de Ensino Multimídia,private,Avenida Marginal Esquerda Anchieta,+55 11 4367 8303,https://jpiaget.com.br/,-23.676136,-46.5682122
426006904,way,Colégio Haya,school,,,Rua Virgínia Aurora Rodrigues,+55 11 3682 3190,https://www.haya.com.br/contato-colegio-haya.php,-23.5279016,-46.7798206
426006905,way,Colégio Padre Anchieta,school,,,Rua Batista de Azevedo,+55 11 3184 1111,https://www.padreanchieta.com.br/,-23.5272062,-46.7795909
426659464,way,Escola Estadual Professora Beatriz de Quadros Leme,school,Secretaria da Educação do Estado de São Paulo,,Rua Professor Gastão Ramos,+55 11 5821 5444,,-23.6749401,-46.7903314
426659466,way,EMEI Professor Dante Moreira Leite,school,,,Avenida Doutor Salvador Rocco,+55 11 5821-6451;+55 11 5821-2875,,-23.6720499,-46.79254
426807066,way,Cheche Municipal Jd. Macedônia,school,,,,,,-23.6533166,-46.7902206
426911161,way,Escola Municipal de Educação Infantil Coronel João Negrão,school,Prefeitura do Município de São Paulo,,Rua Francisco Leite Esquerdo,+55 11 3751 0224,,-23.5975258,-46.756154
426911162,way,Escola Municipal de Ensino Fundamental Tarsila do Amaral,school,Prefeitura do Município de São Paulo,,Rua Natal Pigassi,+55 11 3751 0223,,-23.5978722,-46.7564884
426911164,way,Escola Municipal de Ensino Fundamental Vianna Moog,school,Prefeitura do Município de São Paulo,,Rua Francisco Leite Esquerdo,+55 11 3751 1620,,-23.5947485,-46.7545854
427115263,way,Conjunto Educacional Boa Vontade,school,,,Avenida Rudge,+55 11 3225-4500,https://www.lbv.org/,-23.5216336,-46.6507428
427403733,way,Escola Municipal de Ensino Fundamental Padre Manoel de Paiva,school,,,Rua Professor Serafim Orlandi,,,-23.5882371,-46.6212159
427422145,way,Escola Municipal de Ensino Fundamental Professor Décio Machado Gaia,school,Prefeitura Municipal,government,Rua Michel Glebochi,+55 11 4238 2075,,-23.6426049,-46.5598291
428078117,way,Escola Estadual Fernando Nobre,school,Secretaria da Educação do Estado de São Paulo,government,Rua Riacho,+55 11 4617 4305,,-23.5907715,-46.8160877
430045607,way,Colégio Monsenhor Alexandre,school,,,Praça Monsenhor Alexandre Venâncio Arminas,,,-23.6700023,-46.4623045
431417048,way,EMEF Brigadeiro Faria Lima,school,Secretaria da Educação,government,Rua Ametista,,,-23.5768055,-46.629821
431438181,way,Colégio Itatiaia,school,,,Rua Rodrigo Cláudio,,,-23.5715336,-46.6348452
433140249,way,Escola Municipal de Educação Infantil Professor Camillo Ashcar,school,,,,,,-23.6023571,-46.7826202
433869405,way,E.E Professor Augusto Meirelles Reis Filho,school,,,Rua Padre João Gualberto,,,-23.4918445,-46.6516708
434911175,way,Escola Estadual Padre Manuel da Nóbrega,school,,,Rua Santa Prisca,,,-23.5091237,-46.6631392
434920829,way,Escola Estadual Professor Benedito Tolosa,school,Secretaria da Educação do Estado de São Paulo,government,Praça Dirceu de Lima,+55 11 3857 2549,,-23.5103175,-46.6581427
434923599,way,Escola Estadual Capitão Pedro Monteiro do Amaral,school,,,Rua Nursia,,,-23.5026561,-46.6507917
434926366,way,Escola Estadual Professor Joaquim Leme do Prado,school,,,Avenida Imirim,,,-23.4883114,-46.6526938
434927774,way,Escola Estadual Professor Colombo de Almeida,school,,,Rua Graciano Altierio,,,-23.4938883,-46.6605001
434944495,way,Escola Municipal de Educação Infantil Abelardo Galdino Pinto Piolin,school,Secretaria da Educação,government,Praça do Centenário,+55 11 3966 6767,,-23.5101631,-46.6572017
434948791,way,E.E.Professor Antônio Firmino de Proença,school,Secretaria da Educação do Estado de São Paulo,,Rua da Mooca,+55 11 3209 3316,,-23.553176,-46.6210756
434949256,way,Escola Estadual Eduardo Prado,school,Secretaria da Educação do Estado de São Paulo,,Rua Almirante Barroso,+55 11 2796-7006,,-23.5372367,-46.612753
434952517,way,Escola Estadual Oswaldo Cruz,school,,,Rua da Mooca,,,-23.5548433,-46.6039246
434952851,way,"Escola Estadual Martins, Miragaia, Drausio e Camargo",school,,,Rua Cuiabá,,,-23.5601343,-46.5903725
434953238,way,Escola Estadual Armando Araújo,school,Secretaria da Educação do Estado de São Paulo,government,Rua Juvenal Parada,,,-23.5564603,-46.5974269
434954493,way,Centro de Atendimento Socioeducativo ao Adolescente Chiquinha Gonzaga,school,,,Rua Jupuruchita,+55 11 2694-0213; +55 11 2021-1119;+55 11 2928-6480,http://transparencia.fundacaocasa.sp.gov.br,-23.5705962,-46.5852929
435183256,way,Escola Muncipal de Ensino Fundamenta Cassiano Ricardo,school,Secretaria Municipal de Educação,government,Rua João José da Silva,+55 11 2331 9477,,-23.6490833,-46.6041285
435186560,way,Escola Municipal de Ensino Fundamental Pedro Fukuyei Yamaguchi Ferreira,school,,,,,,-23.5083395,-46.4462794
435228304,way,E.E. Professor Augusto Ribeiro de Carvalho,school,Secretaria da Educação do Estado de São Paulo,,Rua Professor João Machado,+55 11 3976 3034;+55 11 3978 1790,,-23.4981208,-46.7030553
435312410,way,Escola Estadual Doutor José Maria Whitaker,school,Secretaria da Educação do Estado de São Paulo,,Rua Padre Arnaldo Dante,+55 11 2335 8057,,-23.6405481,-46.5966729
435313288,way,Escola Estadual Professora Teruko Ueda Yamaguti,school,Secretaria da Educação do Estado de São Paulo,,Rua Amadeu Giusti,+55 11 2334 2996,,-23.6398608,-46.5970275
435313626,way,Escola Municipal Olavo Fontoura,school,Secretaria da Educação,government,Rua Doutor Lafaiette de Sousa Camargo,,,-23.6381145,-46.6062038
435317398,way,Escola Estadual Álvaro de Souza Lima,school,Secretaria da Educação do Estado de São Paulo,government,Rua Memorial de Aires,+55 11 2331 4150,,-23.6530189,-46.6090892
435710754,way,Escola Estadual Professora Glória Azedia Bonetti,school,Secretaria da Educação do Estado de São Paulo,government,Rua Altino Arantes,+55 11 3681 1606,,-23.5498231,-46.7837169
436410491,way,Escola Estadual Odair Martiniano da Silva Mandela,school,Secretaria da Educação do Estado de São Paulo,government,Rua Cachoeira Vila Nova,+55 11 3784 3772,,-23.5863116,-46.8008122
436571913,way,Escola Municipal de Educação Básica Viriato Correia,school,Secretaria Municipal da Educação,government,Rua Brasil,+55 11 4368 2289,,-23.6604774,-46.5640379
437522056,way,E.E Alexandre de Gusmão,school,Secretaria da Educação do Estado de São Paulo,,Rua Cisplatina,+55 11 2215-4362;+55 11 2915-8003,,-23.5885287,-46.6046017
437649603,way,Escola Estadual Professor João Camargo,school,Secrtearia da Educação do Estado de São Paulo,government,Rua Ângelo de Cândia,+55 11 2011-9033;+55 11 2919-5990,,-23.605309,-46.4785981
437892122,way,E.E Visconde de Itaúna,school,Secretaria da Educação do Estado de São Paulo,government,Rua Silva Bueno,+55 11 2272-2445,,-23.5909036,-46.6019539
438042951,way,Escola Estadual Professor Aurélio Buarque de Holanda Ferreira,school,Secretaria da Educação do Estado de São Paulo,government,Rua Doutor José Gravonski,+55 11 2035-1836,,-23.5277533,-46.409359
438042952,way,Escola Estadual Professora Eliza Raquel Macedo de Souza,school,Secretaria da Educação do Estado de São Paulo,government,Rua Darci Mano,+55 11 2557-9013;+55 11 2961-0231,,-23.535376,-46.4104704
438042953,way,Escola Estadual Professora Marilia Santos Carvalho de Polillo,school,Secretaria da Educação do Estado de São Paulo,government,Rua Isabela,+55 11 2552 4252,,-23.5305928,-46.4066751
438042954,way,EMEF Alexandre de Gusmão,school,Prefeitura do Municipio de São Paulo,government,Rua Porto do Bezerra,+55 11 2035-1656;+55 11 2035-6380,,-23.5278578,-46.4117145
438074972,way,Escola Estadual  Professor Odon Cavalcanti,school,Secretaria da Educação do Estado de São Paulo,government,Rua Bamboré,+55 11 5061 5247,,-23.6031397,-46.6086265
438075858,way,Escola Estadual Professor Ataliba de Oliveira,school,Secretaria da Educação do Estado de São Paulo,government,Rua São Silvestre,+55 11 2947 4947,,-23.6240371,-46.5949978
438075859,way,Escola Estadual Professor Carlos Estevam Aldo Martins,school,Secretaria da Educação do Estado de São Paulo,government,Rua São Silvestre,+55 11 2083 7789,,-23.624003,-46.5944936
438076006,way,Escola Estadual Manuela Lacerda Vergueiro,school,Secretaria da Educação do Estado de São Paulo,government,Rua Tamuatá,+55 11 2947 5163,,-23.6217216,-46.5933295
438076335,way,Escola Estadual Melvin Jones,school,Secretaria da Educação do Estado de São Paulo,government,Rua Leandro de Souza,+55 11 2946 2161,,-23.6286217,-46.5939153
438088777,way,EMPG Professor João Carlos da Silva Borges,school,,,Praça dos Aranas,,,-23.6161714,-46.662966
438167742,way,Escola Estadual Francisco Antunes Filho,school,Secretaria da Educação do Estado de São Paulo,government,Rua Professora Maria Del Pilar Muñoz Bononato,+55 11 2408 0540,,-23.4626441,-46.4960564
438464535,way,Escola Estadual Professor Paulo Roberto Faggioni,school,Secretaria da Educação do Estado de São Paulo,government,Rua Tabacarana,+55 11 2041-9584;+55 11 2280-0043,,-23.5174795,-46.4695995
439048078,way,EMEFM Arquiteto Oscar Niemeyer,school,,government,Rua Paraíso,+55 11 4232 3816,,-23.633443,-46.5650689
439288504,way,Cetrus,school,,,Avenida Jabaquara,,,-23.6154351,-46.6389489
439298462,way,Colégio Terra,school,,,Rua Carneiro da Cunha,,,-23.6170125,-46.6359443
439308139,way,Kumon - Unidade Carneiro da Cunha,school,Kumon,,Rua Itapiru,,,-23.6167074,-46.6351214
439319617,way,Escola Estadual Almirante Barroso,school,,,Avenida Jabaquara,,,-23.6286785,-46.6438201
439889142,way,See Saw Panamby,school,,,Rua Visconde de Nacar,+55 11 3758-2241,https://www.see-saw.com.br/,-23.6080955,-46.7059523
440269457,way,Escola Estadual Professor Clóvis de Lucca,school,Secretaria da Educação do Estado de São Paulo,government,Rua dos Vianas,+55 11 4330 5463,,-23.7039717,-46.5355819
440619041,way,Escola Estadual Capitão Alberto Helena Junior,school,Secretaria da Educação do Estado de São Paulo,,Praça Nossa Senhora Aparecida,+55 11 2452 5335,,-23.4669559,-46.5598428
440622031,way,Escola Estadual João Crispiniano Soares,school,Secretaria da Educação do Estado de São Paulo,,Rua Francisco Antunes,+55 11 2422 5292,,-23.4792529,-46.546495
440640479,way,Escola Estadual Jardim das Camélias,school,Secretaria da Educação do Estado de São Paulo,,Rua Cangica,+55 11 2054-0090,,-23.5114504,-46.4585986
440965077,way,Colegio Santo Américo,school,,,Rua Santo Américo,+55 11 4084-1888,,-23.6047948,-46.7285538
441252224,way,Escola Municipal Integrada Josefa da Cunha Leite,school,Prefeitura Municipal,,Rua Tomaso Tomé,+55 11 4232 4996,,-23.6359353,-46.5617199
441304008,way,Escola Estadual Pedro Roberto Vaghi,school,Secretaria da Educação do Estado de São Paulo,government,Rua Falcão Dourado,+55 11 2457 6663,,-23.4258759,-46.5299373
441323198,way,Escola Estadual Professora Hilda Prates Gallo,school,Secretaria da Educação do Estado de São Paulo,government,Avenida Brigadeiro Faria Lima,+55 11 2402 3188,,-23.4280938,-46.5213677
441344043,way,Escola Estadual Brigadeiro Haroldo Veloso,school,Secretaria da Educação do Estado de São Paulo,government,Rua Ester,+55 11 2467 0877,,-23.4163566,-46.4713924
442801005,way,E.E Professor Jamil Pedro Sawaya,school,,,Rua Palmeirina,+55 11 2749-0957;+55 11 2749-4365,,-23.5415199,-46.5015959
444207360,way,Colégio Paschoal Dantas,school,,,Avenida Afonso de Sampaio e Sousa,+55 11 2741 5100,https://colegiopaschoaldantas.com.br/,-23.5668247,-46.4675139
444664747,way,Escola Estadual Professor Oswaldo Walder,school,Secretaria da Educação do Estado de São Paulo,government,Rua Sara Newton,+55 11 3782 4809,,-23.5824597,-46.7925723
444777175,way,Escola Estadual Professor Alípio de Oliveira e Silva,school,Secretaria da Educação do Estado de São Paulo,government,Rua Miquelina Tulio de Cristillo,+55 11 4701 2586,,-23.6000263,-46.7633658
447002329,way,Escola Municipal de Ensino Infantl Doutor Antonio Roberto Alves Braga,school,Secretaria Municipal de Educação,,Rua dos Escoteiros,+55 11 2052-3414,,-23.5112395,-46.4598892
447002335,way,Escola Estadual Luigi Pirandello,school,Secretaria da Educação,,Avenida Laranja da China,+55 11 2053-3644;+55 11 2053-4763,,-23.5124619,-46.4622349
448194265,way,Colégio Villa Lobos,school,,,Avenida Índico,+55 11 4123 0024,https://www.colegiovillalobos.com.br/,-23.6930036,-46.5556623
448391161,way,Escola Estadual Professor Antônio Nascimento,school,Secretaria da Educação do Estado de São Paulo,government,Avenida Padre Anchieta,+55 11 4178 9768,,-23.6843645,-46.5746638
449010956,way,Escola Estadual Professor Lívio Marcos Guercia,school,Secretaria da Educação do Estado de São Paulo,government,Rua Baependy,+55 11 4091 7536,,-23.6690777,-46.6268897
449011202,way,Escola Estadual Professora Marie Nader Calfat,school,Secretaria da Educação do Estado de São Paulo,government,Rua Olmeiro,+55 11 4091 7323,,-23.6635788,-46.6252777
449011976,way,Escola Estadual Ana Maria Poppovic,school,Secretaria da Educação do Estado de São Paulo,government,Rua Serra da Mantiqueira,+55 11 4091 7631,,-23.6766794,-46.6266437
449012146,way,Escola Estadual Homero Silva,school,Secretaria da Educação do Estado de São Paulo,government,Rua Nove de Julho,+55 11 4075 4610,,-23.6767683,-46.6032207
449016494,way,Escola Estadual Jardim Ana Sofia,school,Secretaria da Educação do Estado de São Paulo,government,Rua Humberto Maorelli de Mendonça,+55 11 4071 6020,,-23.689938,-46.6011412
449257224,way,Colégio Wellington - Centro de Ensino Integrado,school,,,Avenida Ministro Petrônio Portela,+55 11 3976 5588,https://colegiowellington.com.br/,-23.497293,-46.7054404
449913060,way,Colegio Domus Sapientiae,school,,,Rua Doutor Eduardo de Souza Aranha,,,-23.5890012,-46.6749037
450159210,way,Colegio 24 de Março,school,,,,,,-23.5681644,-46.6929789
450166801,way,Maple Bear Canadian School,school,,private,Rua Purpurina,,,-23.5524289,-46.6892553
451191239,way,E.E Professora Anésia Sincora,school,Secretaria da Educação do Estado de São Paulo,government,Rua José Bernardo Pinto,+55 11 2901-1005;+55 11 2901-4004,,-23.5161066,-46.604998
451953841,way,Colegio Palmares,school,,,,,,-23.5603174,-46.6953431
452149355,way,Escola Estadual Origenes Lessa,school,Secretaria da Educação do Estado de São Paulo,government,Rua Padre Antônio Thomaz,+55 11 4066 6002,,-23.6924662,-46.5911232
453304508,way,EMEI Antonio Pereira Lima,school,Prefeitura do Municipio de São Paulo,government,Rua Ananaí,+55 11 2035 1639,,-23.5231727,-46.4187529
453304509,way,EMEF João Ribeiro de Barros,school,Prefeitura do Municipio de São Paulo,,Rua Ananaí,+55 11 2513-3616,,-23.5228677,-46.4193987
453304510,way,E.E Professora Nancy de Oliveira Fidalgo,school,Governo do Estado de São Paulo,government,Rua Miguel Arcanjo Dutra,+55 11 2035-6503;+55 11 2035-9534,,-23.5250064,-46.4253633
453304511,way,Escola Estadual Professor Cesar Darcoso Filho,school,Governo do Estado de São Paulo,government,Rua João Gomes de Farias,20351654,,-23.5298242,-46.4213656
453304512,way,Escola Estadual Professora Maria Lucia Ambrozio,school,Governo do Estado de São Paulo,government,Rua Antonio Januario Ferraz,+55 11 2035-1738,,-23.5319231,-46.4188269
453771661,way,Escola Estadual Professora Carolina Cintra da Silveira,school,Secretaria da Educação do Estado de São Paulo,,Rua Doutor Luís da Fonseca Galvão,+55 11 5511 2450,,-23.6623973,-46.7669386
455336050,way,Centro Educacional Unificado Wally Salomão,school,,,Rua Barbinos,+55 11 2945 2560,,-23.6206671,-46.5830085
455338186,way,Escola Lygia de Azevedo Souza e Sá,school,,,,,,-23.6261026,-46.6358321
456243254,way,Escola Estadual Professor Américo de Moura,school,Secretaria da Educação do Estado de São Paulo,government,Rua Mendonça Corte Real,+55 11 2345-6633,,-23.5841868,-46.5737745
456246728,way,E.E Professora Carolina Augusta da Costa Galvão,school,Secretaria da Educação do Estado de São Paulo,government,Rua Maria Daffré,+55 11 2215-6555,,-23.5852669,-46.5884954
456374185,way,Centro Educacional Unificado Azul da Cor do Mar,school,,,Avenida Ernesto de Souza Cruz,,,-23.5214758,-46.4567622
456411208,way,Escola Municipal de Ensino Professora Alcina Dantas Feijão,school,,,Rua Capivari,+55 11 4238 3157,http://www.alcinadantas.com.br/index.html,-23.6448384,-46.5697287
456416437,way,Escola Estadual Clorinda Ciampitti Perrella,school,Secretaria da Educação do Estado de São Paulo,government,Rua Ignácio Barreta,+55 11 4576 3939,,-23.673461,-46.4339983
456684176,way,Fundação Municipal Anne Sullivan,school,,,Alameda Conde de Porto Alegre,+55 11 4220 3546;+55 11 4220 3286;+55 11 4220 3638,,-23.6336935,-46.5564707
456824494,way,Escola Municipal de Educação Infantil Ministro Pedro Chaves,school,,,Rua Isabel Urbina,+55 11 2521-3574;+55 11 2521-3845,,-23.5469132,-46.4376891
456854673,way,Escola Estadual Dona Idalina Macedo Costa Sodré,school,Secretaria da Educação do Estado de São Paulo,,Rua Conselheiro Lafayette,+55 11 4224 4311,,-23.6209471,-46.5509484
456856451,way,CECAPE Zilda Arns,school,,,Rua Tapajós,,,-23.6214128,-46.550375
457326568,way,Escola Estadual Professor Alfredo Burkart,school,Secretaria da Educação do Estado de São Paulo,government,Rua Boa Vista,+55 11 4238 1013,,-23.6410095,-46.5634702
457938458,way,Escola Estadual Afrânio Peixoto,school,,,Rua Maria Cândida,+55 11 2909-0009;+55 11 2909-0267,,-23.5086164,-46.5968228
458472023,way,Escola Municipal de Educação Infantil Fernando Pessoa,school,Prefeitura do Município de São Paulo,,Rua Bartolomeu Bon,+55 11 3751 1164,,-23.593779,-46.7592039
459399576,way,Colegio Lazi,school,Igreja santa Zita,,Rua Padre Sabóia de Medeiros,,,-23.4957331,-46.5844821
459902871,way,Colégio Stocco,school,,,Avenida Padre Anchieta,+55 11 4436 0411,,-23.6534907,-46.5314496
460218756,way,Escola Estadual Força Aérea Brasileira,school,Secretaria da Educação do Estado de São Paulo,government,Rua Armando Mamede Junior,+55 11 2035 1752;+55 11 2035 8235,,-23.5155375,-46.4161162
460343853,way,Escola Municipal de Educação Infantil Quinta das Paineiras,school,,,Praça Mário Ortiz,+55 11 2345-5536;+55 11 2347-2891,,-23.5884917,-46.5879407
461279411,way,Escola Municipal de Educação Fundamental Professor Adolpho Otto de Laet,school,,,Rua Isidoro de Laet,,,-23.4815419,-46.6267409
462325141,way,Escola Estadual Professora Maria Josefina Kuhlmann Flaquer,school,Secretaria da Educação do Estado de São Paulo,government,Rua Noel Rosa,+55 11 4549 1348;+55 11 4549 2665,,-23.6326386,-46.4778522
462434879,way,CEU São Mateus,school,Secretaria Municipal de Educação,government,Rua Curumatim,+55 11 2732 8154,,-23.6034112,-46.4491847
462543681,way,Centro Educacional Unificado Aricanduva,school,,,Rua Olga Fadel Abarca,+55 11 2723-7557,,-23.5701328,-46.5033545
462543706,way,E.E Professor Moacyr Campos,school,Secretraria da Educação do Estado de São Paulo,government,Avenida Rio das Pedras,+55 11 2721 7816,,-23.5709176,-46.5077062
462560748,way,E.E  Professor Ivo Bandoni,school,Secretaria da Educação do Estado de São Paulo,,Rua Bom Jesus do Monte,+55 11 2743-8453;+55 11 2742-8514,,-23.5670219,-46.4960574
462561614,way,Escola Estadual Oswaldo Catalano,school,Secretaria Estadual da Educação,government,Rua Felipe Camarão,,,-23.5383245,-46.5798613
462566649,way,Escola Municipal de Educação Infantil José Joaquim da Silva,school,,,Rua Soldado Anésio Antão Ferreira,,,-23.5093825,-46.576306
462585601,way,Cerejeiras Centro de Educação Infantil,school,,,Rua Soldado José Higaskino,,,-23.5106246,-46.5756359
462617739,way,E.E Casimiro de Abreu,school,,,Rua Coronel Jordão,,,-23.5076908,-46.6013536
462629098,way,Escola Municipal de Ensino Infantil Santos Dumont,school,,,Rua Diana,,,-23.5306866,-46.6799111
462630261,way,Escola Estadual José Cândido de Souza,school,,,Rua Diana,,,-23.5368422,-46.6842692
462685856,way,Escola Estadual Paulo Setúbal,school,,,Avenida Deputado Emílio Carlos,,,-23.4898158,-46.6750256
462687284,way,Escola Estadual Joaquim Nabuco,school,,,Rua Joaquim Afonso de Souza,+55 11 2256-3577;+55 11 2256-1244,,-23.4885213,-46.6658615
462692729,way,Colégio Nossa Senhora das Dores,school,,,Rua Relíquia,,,-23.5066263,-46.6621983
462695312,way,Colégio Cermac,school,,,Avenida do Guacá,,,-23.4794914,-46.637686
462696845,way,Escola Municipal de Educação Infantil José Bonifácio Andrada e Silva,school,,,Rua Doutor César,,,-23.5030227,-46.6315865
462698257,way,E.E.Doutor Octávio Mendes,school,Secretaria da Educação do Estado de São Paulo,,Rua Voluntários da Pátria,+55 11 2978 3428;+55 11 2283 5169,,-23.4899627,-46.625355
462698650,way,Escola Estadual República da Bolívia,school,,,Rua Outeiro da Cruz,,,-23.4902352,-46.6226595
462698838,way,Escola Estadual Professora Narbal Fontes,school,,,Avenida Conceição,,,-23.5006303,-46.6058965
462699398,way,Colégio Paulo Avelar,school,,,Avenida Conceição,,,-23.4995339,-46.6078533
462775628,way,Escola Municipal de Educação Fundamental Ruy Barbosa,school,,,Avenida Conceição,,,-23.5001705,-46.6005771
462777863,way,EMEI Padre Anchieta,school,Prefeitura Municipal de São Paulo,government,Rua Maria Cândida,,,-23.5075154,-46.5999207
462781992,way,Escola Municipal de Educação Fundamental Professora Helena Lombardi,school,Prefeitura Municipal de São Paulo,government,Rua Dirce,,,-23.502893,-46.5980792
462838588,way,Escola Estadual Toledo Barbosa,school,,,Rua Maria Cândida,,,-23.5019599,-46.6112581
462839678,way,E.E Gonçalves Dias,school,Secretaria da Educação do Estado de São Paulo,government,Rua Nilo Luís Mazzei,,,-23.4929809,-46.601669
462840014,way,E.E Deputado Pedro Costa,school,Secretaria da Educação do Estado de São Paulo,government,Rua Nilo Luís Mazzei,,,-23.4936591,-46.6025312
462841009,way,Colégio Jardim França,school,,,Avenida Nova Cantareira,,,-23.4753694,-46.6117943
462844297,way,Instituto Educacional Santa Joana D'arc,school,,,Avenida Nova Cantareira,,,-23.4745975,-46.612775
462845222,way,E.E Clodomiro Carneiro,school,,,Rua Manoel de Souza Azevedo,,,-23.4717841,-46.7032215
462846256,way,Escola Estadual Almirante Marques de Tamandaré,school,,,Rua Jacaré-Copaíba,,,-23.4840521,-46.7026134
462847092,way,Escola Municipal de Educação Fundamental Theo Dutra,school,,,Avenida Guilherme Almeida,,,-23.467111,-46.6808594
462987527,way,Escola Municipal de Educação Fundamental Joaquim Nabuco,school,,,Praça Doutor Wadih Safady,+55 11 2946 9248,,-23.6380485,-46.5992639
463066231,way,Centro Unificado Educacional Taquatira,school,Secretaria Municipal de Educação de São Paulo,government,Avenida Condessa Elisabeth de Robiano,+55 11 2075 7500,http://portal.sme.prefeitura.sp.gov.br/Main/Page/PortalSMESP/CEUs--Enderecos,-23.5173516,-46.5539
463768295,way,Escola Estadual Heckel Tavares,school,Secretaria da Educação do Estado de São Paulo,,Avenida Doutor José Artur Nova,+55 11 2581-4523,,-23.4747683,-46.4249868
463779288,way,Escola Estadual Professora Alayde Maria Vicente,school,Secretaria da Educação do Estado de São Paulo,government,Rua Ida Richi,+55 11 2480 2002,,-23.4652632,-46.3961154
463783547,way,Escola Estadual Professor Mário Nakata,school,Secretaria da Educação do Estado de São Paulo,government,Rua  Eurachio Maurício,+55 11 2480 4419,,-23.4609412,-46.4096223
463783577,way,Centro Educacional Unificado Walter Efigênio,school,,,Rua Joaquim Moreira,,,-23.4586658,-46.409791
463791478,way,Escola Estadual Hugo Aguiar,school,Secretaria da Educação do Estado de São Paulo,,Avenida José Miguel Ackel,+55 11 2484 0555,,-23.4442188,-46.4280521
464243223,way,CCA Unibes,school,,,Rua Pedro Vicente,,,-23.5249473,-46.6233977
464245857,way,Colégio Saint Clair,school,,,Rua Coronel Emídio Piedade,+55 11 2695 3452,https://www.colegiosaintclair.com.br/,-23.5286165,-46.6105868
464387843,way,Colegio Manoel de Nobrega,school,,,,,,-23.5330022,-46.597975
464393976,way,Colégio Raniere,school,,,Rua Elói Cerqueira,,,-23.5412062,-46.5923471
464431788,way,Escola Estadual Doutor Celso Gama,school,Secretaria da Educação do Estado de São Paulo,government,Praça Assunção,+55 11 4438 1616,,-23.6723532,-46.526372
464917426,way,Escola Estadual Virgília Rodrigues Alves de Carvalho Pinto,school,Governo do Estado de São Paulo,government,Rua Domingos Barbieri,,,-23.5766644,-46.7204446
464917427,way,Escola Estadual Doutor Kyrillos,school,Governo do Estado de São Paulo,government,Rua Antônio Adib Chammas,,,-23.5763657,-46.7202253
465409816,way,Escola Estadual Jacques Maritain,school,Secretaria da Educação do Estado de São Paulo,government,Rua Laranjal,+55 11 2947 3033,,-23.6229049,-46.5999956
465976202,way,Escola Estadual Coronel Pedro Árbues,school,,,Rua Lucinda Gomes Barreto,+55 11 2097-0842;+55 11 2293-4898,,-23.5458715,-46.5402007
466130904,way,Escola Estadual Professor Sérgio da Silva Nobreza,school,Secretaria da Educação do Estado de São Paulo,,Rua Francesco Melzi,+55 11 2741-8712;+55 11 2742-8545,,-23.5625773,-46.498385
466130911,way,Escola Estadual Cidade de Hiroshima,school,Secretaria da Educação do Estado de São Paulo,government,Rua Venâncio Lisboa,+55 11 2748-6797;+55 11 2748-9085,,-23.5682362,-46.4695215
466185325,way,Escola Estadual Professor Ulisses Victor Gervásio,school,Secretaria da Educação do Estado de São Paulo,government,Rua Maceió,+55 11 4543 1466,,-23.6565439,-46.4584979
466209527,way,Escola Estadual Professora Olinda Furtado de Albuquerque Cavalcante,school,Secretaria da Educação do Estado de São Paulo,government,Rua Egnes Rimazza Gianoni,+55 11 4545 2616,,-23.6477628,-46.4330296
466690826,way,Escola Estadual Professora Emiko Fujimoto,school,Secretaria da Educação do Estado de São Paulo,government,Estrada Mauá e Adutora Rio Claro,+55 11 4516 2444;+55 11 4544 4128,,-23.6465279,-46.4544704
467598811,way,Escola Estadual Professor Alípio de Barros,school,Secretaria da Educação do Estado de São Paulo,government,Rua Comendador Feiz Zarzur,,,-23.4774217,-46.7211427
467705904,way,Emei Joaquim Antonio Da Rocha,school,,,Rua Professor José Ozi,,,-23.6096231,-46.5819057
468171656,way,EMEF Emilio Ribas,school,,,Rua José Joaquim,,,-23.6015323,-46.5171237
