0,1
18848,"{'stop_name': 'Clínicas', 'stop_lat': -23.554022, 'stop_lon': -46.671108, 'stop_location_type': 'Metro'}"
18849,"{'stop_name': 'Vila Madalena', 'stop_lat': -23.546498, 'stop_lon': -46.691141, 'stop_location_type': 'Metro'}"
18850,"{'stop_name': 'Consolação', 'stop_lat': -23.558094, 'stop_lon': -46.660205, 'stop_location_type': 'Metro'}"
18851,"{'stop_name': 'Conceição', 'stop_lat': -23.635039, 'stop_lon': -46.641239, 'stop_location_type': 'Metro'}"
18852,"{'stop_name': 'Jabaquara', 'stop_lat': -23.646033, 'stop_lon': -46.641028, 'stop_location_type': 'Metro'}"
18853,"{'stop_name': 'São Judas', 'stop_lat': -23.625882, 'stop_lon': -46.640936, 'stop_location_type': 'Metro'}"
18854,"{'stop_name': 'Saúde', 'stop_lat': -23.618245, 'stop_lon': -46.639139, 'stop_location_type': 'Metro'}"
18855,"{'stop_name': 'Praça Da Árvore', 'stop_lat': -23.610583, 'stop_lon': -46.637918, 'stop_location_type': 'Metro'}"
18856,"{'stop_name': 'Santa Cruz', 'stop_lat': -23.598541, 'stop_lon': -46.636638, 'stop_location_type': 'Metro'}"
18857,"{'stop_name': 'Vila Mariana', 'stop_lat': -23.589359, 'stop_lon': -46.634677, 'stop_location_type': 'Metro'}"
18858,"{'stop_name': 'Brigadeiro', 'stop_lat': -23.567615, 'stop_lon': -46.649027, 'stop_location_type': 'Metro'}"
18859,"{'stop_name': 'Trianon-masp', 'stop_lat': -23.56357, 'stop_lon': -46.653893, 'stop_location_type': 'Metro'}"
18860,"{'stop_name': 'Ana Rosa', 'stop_lat': -23.581203, 'stop_lon': -46.638489, 'stop_location_type': 'Metro'}"
18861,"{'stop_name': 'Paraíso', 'stop_lat': -23.5754, 'stop_lon': -46.6407, 'stop_location_type': 'Metro'}"
18862,"{'stop_name': 'Vergueiro', 'stop_lat': -23.568521, 'stop_lon': -46.639904, 'stop_location_type': 'Metro'}"
18863,"{'stop_name': 'São Joaquim', 'stop_lat': -23.561435, 'stop_lon': -46.638534, 'stop_location_type': 'Metro'}"
18864,"{'stop_name': 'Marechal Deodoro', 'stop_lat': -23.533163, 'stop_lon': -46.657264, 'stop_location_type': 'Metro'}"
18865,"{'stop_name': 'Santa Cecília', 'stop_lat': -23.538095, 'stop_lon': -46.649009, 'stop_location_type': 'Metro'}"
18866,"{'stop_name': 'República', 'stop_lat': -23.544215, 'stop_lon': -46.642461, 'stop_location_type': 'Metro'}"
18867,"{'stop_name': 'Anhangabaú', 'stop_lat': -23.5478, 'stop_lon': -46.6392, 'stop_location_type': 'Metro'}"
18868,"{'stop_name': 'Liberdade', 'stop_lat': -23.555211, 'stop_lon': -46.635581, 'stop_location_type': 'Metro'}"
18869,"{'stop_name': 'Sé', 'stop_lat': -23.5505, 'stop_lon': -46.633305, 'stop_location_type': 'Metro'}"
18870,"{'stop_name': 'São Bento', 'stop_lat': -23.5441, 'stop_lon': -46.6342, 'stop_location_type': 'Metro'}"
18871,"{'stop_name': 'Pedro II', 'stop_lat': -23.549742, 'stop_lon': -46.626281, 'stop_location_type': 'Metro'}"
18872,"{'stop_name': 'Luz', 'stop_lat': -23.5366, 'stop_lon': -46.6343, 'stop_location_type': 'Metro'}"
18873,"{'stop_name': 'Tiradentes', 'stop_lat': -23.531324, 'stop_lon': -46.632672, 'stop_location_type': 'Metro'}"
18874,"{'stop_name': 'Armênia', 'stop_lat': -23.5254, 'stop_lon': -46.6292, 'stop_location_type': 'Metro'}"
18875,"{'stop_name': 'Bresser-mooca', 'stop_lat': -23.546398, 'stop_lon': -46.607246, 'stop_location_type': 'Metro'}"
18876,"{'stop_name': 'Belém', 'stop_lat': -23.542922, 'stop_lon': -46.589676, 'stop_location_type': 'Metro'}"
18877,"{'stop_name': 'Portuguesa-tietê', 'stop_lat': -23.51624, 'stop_lon': -46.625149, 'stop_location_type': 'Metro'}"
18878,"{'stop_name': 'Carandiru', 'stop_lat': -23.508727, 'stop_lon': -46.624897, 'stop_location_type': 'Metro'}"
18879,"{'stop_name': 'Santana', 'stop_lat': -23.502716, 'stop_lon': -46.624716, 'stop_location_type': 'Metro'}"
18880,"{'stop_name': 'Jardim São Paulo-ayrton Senna', 'stop_lat': -23.492734, 'stop_lon': -46.617354, 'stop_location_type': 'Metro'}"
18881,"{'stop_name': 'Parada Inglesa', 'stop_lat': -23.487111, 'stop_lon': -46.608877, 'stop_location_type': 'Metro'}"
18882,"{'stop_name': 'Tucuruvi', 'stop_lat': -23.480049, 'stop_lon': -46.603209, 'stop_location_type': 'Metro'}"
18883,"{'stop_name': 'Carrão', 'stop_lat': -23.53784, 'stop_lon': -46.564393, 'stop_location_type': 'Metro'}"
18884,"{'stop_name': 'Penha', 'stop_lat': -23.533594, 'stop_lon': -46.542944, 'stop_location_type': 'Metro'}"
18885,"{'stop_name': 'Vila Matilde', 'stop_lat': -23.531901, 'stop_lon': -46.530904, 'stop_location_type': 'Metro'}"
18886,"{'stop_name': 'Guilhermina Esperança', 'stop_lat': -23.529319, 'stop_lon': -46.516673, 'stop_location_type': 'Metro'}"
18887,"{'stop_name': 'Patriarca', 'stop_lat': -23.531079, 'stop_lon': -46.501715, 'stop_location_type': 'Metro'}"
18888,"{'stop_name': 'Artur Alvim', 'stop_lat': -23.540068, 'stop_lon': -46.484833, 'stop_location_type': 'Metro'}"
18889,"{'stop_name': 'Eng. Goulart', 'stop_lat': -23.498281, 'stop_lon': -46.520092, 'stop_location_type': 'Rail'}"
18890,"{'stop_name': 'Corinthians-itaquera', 'stop_lat': -23.542411, 'stop_lon': -46.471964, 'stop_location_type': 'Metro'}"
18891,"{'stop_name': 'Comendador Ermelino', 'stop_lat': -23.485166, 'stop_lon': -46.482828, 'stop_location_type': 'Rail'}"
18892,"{'stop_name': 'Dom Bosco', 'stop_lat': -23.541714, 'stop_lon': -46.447993, 'stop_location_type': 'Rail'}"
18893,"{'stop_name': 'José Bonifácio', 'stop_lat': -23.53912, 'stop_lon': -46.431683, 'stop_location_type': 'Rail'}"
18894,"{'stop_name': 'Antônio Gianetti Neto', 'stop_lat': -23.554322, 'stop_lon': -46.383668, 'stop_location_type': 'Rail'}"
18895,"{'stop_name': 'Guaianases', 'stop_lat': -23.542298, 'stop_lon': -46.415633, 'stop_location_type': 'Rail'}"
18897,"{'stop_name': 'Itaim Paulista', 'stop_lat': -23.493989, 'stop_lon': -46.402304, 'stop_location_type': 'Rail'}"
18898,"{'stop_name': 'Ferraz De Vasconcelos', 'stop_lat': -23.540688, 'stop_lon': -46.368207, 'stop_location_type': 'Rail'}"
18899,"{'stop_name': 'Poá', 'stop_lat': -23.525211, 'stop_lon': -46.34325, 'stop_location_type': 'Rail'}"
18900,"{'stop_name': 'Eng Manoel Feio', 'stop_lat': -23.478636, 'stop_lon': -46.364469, 'stop_location_type': 'Rail'}"
18901,"{'stop_name': 'Calmon Viana', 'stop_lat': -23.525497, 'stop_lon': -46.332803, 'stop_location_type': 'Rail'}"
18902,"{'stop_name': 'Suzano', 'stop_lat': -23.533521, 'stop_lon': -46.309229, 'stop_location_type': 'Rail'}"
18906,"{'stop_name': 'Santo Amaro', 'stop_lat': -23.655909, 'stop_lon': -46.719702, 'stop_location_type': 'Rail'}"
18907,"{'stop_name': 'Jurubatuba', 'stop_lat': -23.677465, 'stop_lon': -46.702213, 'stop_location_type': 'Rail'}"
18908,"{'stop_name': 'Socorro', 'stop_lat': -23.66343, 'stop_lon': -46.71097, 'stop_location_type': 'Rail'}"
18909,"{'stop_name': 'Granja Julieta', 'stop_lat': -23.627599, 'stop_lon': -46.712111, 'stop_location_type': 'Rail'}"
18910,"{'stop_name': 'Morumbi', 'stop_lat': -23.621519, 'stop_lon': -46.701657, 'stop_location_type': 'Rail'}"
18911,"{'stop_name': 'Berrini', 'stop_lat': -23.604669, 'stop_lon': -46.696825, 'stop_location_type': 'Rail'}"
18912,"{'stop_name': 'Vila Olímpia', 'stop_lat': -23.593185, 'stop_lon': -46.692871, 'stop_location_type': 'Rail'}"
18913,"{'stop_name': 'Cidade Jardim', 'stop_lat': -23.585337, 'stop_lon': -46.691293, 'stop_location_type': 'Rail'}"
18914,"{'stop_name': 'Amador Bueno', 'stop_lat': -23.5307, 'stop_lon': -46.983928, 'stop_location_type': 'Rail'}"
18916,"{'stop_name': 'Piqueri', 'stop_lat': -23.504206, 'stop_lon': -46.714999, 'stop_location_type': 'Rail'}"
18917,"{'stop_name': 'Lapa (linha 7)', 'stop_lat': -23.517538, 'stop_lon': -46.703952, 'stop_location_type': 'Rail'}"
18918,"{'stop_name': 'Lapa (linha 8)', 'stop_lat': -23.519585, 'stop_lon': -46.700124, 'stop_location_type': 'Rail'}"
18919,"{'stop_name': 'Água Branca', 'stop_lat': -23.521231, 'stop_lon': -46.689237, 'stop_location_type': 'Rail'}"
18920,"{'stop_name': 'Palmeiras - Barra Funda', 'stop_lat': -23.525317, 'stop_lon': -46.666547, 'stop_location_type': 'Rail'}"
18921,"{'stop_name': 'Perus', 'stop_lat': -23.404054, 'stop_lon': -46.754465, 'stop_location_type': 'Rail'}"
18922,"{'stop_name': 'Jaraguá', 'stop_lat': -23.455502, 'stop_lon': -46.738483, 'stop_location_type': 'Rail'}"
18923,"{'stop_name': 'Vila Clarice', 'stop_lat': -23.470038, 'stop_lon': -46.744207, 'stop_location_type': 'Rail'}"
18924,"{'stop_name': 'Caieiras', 'stop_lat': -23.367176, 'stop_lon': -46.752822, 'stop_location_type': 'Rail'}"
18925,"{'stop_name': 'Franco Da Rocha', 'stop_lat': -23.332181, 'stop_lon': -46.727614, 'stop_location_type': 'Rail'}"
18926,"{'stop_name': 'Baltazar Fidélis', 'stop_lat': -23.310582, 'stop_lon': -46.722853, 'stop_location_type': 'Rail'}"
18927,"{'stop_name': 'Tamanduateí', 'stop_lat': -23.592982, 'stop_lon': -46.589343, 'stop_location_type': 'Rail'}"
18928,"{'stop_name': 'São Caetano', 'stop_lat': -23.610281, 'stop_lon': -46.57033, 'stop_location_type': 'Rail'}"
18929,"{'stop_name': 'Utinga', 'stop_lat': -23.626196, 'stop_lon': -46.543623, 'stop_location_type': 'Rail'}"
18930,"{'stop_name': 'Prefeito Saladino', 'stop_lat': -23.638762, 'stop_lon': -46.53686, 'stop_location_type': 'Rail'}"
18931,"{'stop_name': 'Ribeirão Pires', 'stop_lat': -23.713586, 'stop_lon': -46.414805, 'stop_location_type': 'Rail'}"
18932,"{'stop_name': 'Rio Grande Da Serra', 'stop_lat': -23.742981, 'stop_lon': -46.392026, 'stop_location_type': 'Rail'}"
18934,"{'stop_name': 'Capuava', 'stop_lat': -23.65851, 'stop_lon': -46.490542, 'stop_location_type': 'Rail'}"
18935,"{'stop_name': 'Mauá', 'stop_lat': -23.668016, 'stop_lon': -46.461769, 'stop_location_type': 'Rail'}"
18936,"{'stop_name': 'Prefeito Celso Daniel - Santo André', 'stop_lat': -23.652472, 'stop_lon': -46.528568, 'stop_location_type': 'Rail'}"
18937,"{'stop_name': 'Guapituba', 'stop_lat': -23.691321, 'stop_lon': -46.449263, 'stop_location_type': 'Rail'}"
18939,"{'stop_name': 'Júlio Prestes', 'stop_lat': -23.532964, 'stop_lon': -46.640763, 'stop_location_type': 'Rail'}"
18940,"{'stop_name': 'Luz', 'stop_lat': -23.535103, 'stop_lon': -46.635436, 'stop_location_type': 'Rail'}"
18941,"{'stop_name': 'Moóca', 'stop_lat': -23.557799, 'stop_lon': -46.608419, 'stop_location_type': 'Rail'}"
18942,"{'stop_name': 'Ipiranga', 'stop_lat': -23.582356, 'stop_lon': -46.59666, 'stop_location_type': 'Rail'}"
18944,"{'stop_name': 'Tatuapé', 'stop_lat': -23.5403, 'stop_lon': -46.5767, 'stop_location_type': 'Metro'}"
18946,"{'stop_name': 'Santa Rita', 'stop_lat': -23.545115, 'stop_lon': -46.947651, 'stop_location_type': 'Rail'}"
18947,"{'stop_name': 'Itapevi', 'stop_lat': -23.545728, 'stop_lon': -46.935416, 'stop_location_type': 'Rail'}"
18948,"{'stop_name': 'Engenheiro Cardoso', 'stop_lat': -23.535245, 'stop_lon': -46.928291, 'stop_location_type': 'Rail'}"
18949,"{'stop_name': 'Sagrado Coração', 'stop_lat': -23.52908, 'stop_lon': -46.91728, 'stop_location_type': 'Rail'}"
18950,"{'stop_name': 'Jandira', 'stop_lat': -23.527721, 'stop_lon': -46.902507, 'stop_location_type': 'Rail'}"
18951,"{'stop_name': 'Jardim Silveira', 'stop_lat': -23.523568, 'stop_lon': -46.893491, 'stop_location_type': 'Rail'}"
18952,"{'stop_name': 'Jardim Belval', 'stop_lat': -23.514306, 'stop_lon': -46.88929, 'stop_location_type': 'Rail'}"
18953,"{'stop_name': 'Barueri', 'stop_lat': -23.512644, 'stop_lon': -46.875113, 'stop_location_type': 'Rail'}"
18954,"{'stop_name': 'Antônio João', 'stop_lat': -23.516859, 'stop_lon': -46.858801, 'stop_location_type': 'Rail'}"
18955,"{'stop_name': 'Santa Terezinha', 'stop_lat': -23.516347, 'stop_lon': -46.84807, 'stop_location_type': 'Rail'}"
18956,"{'stop_name': 'Carapicuíba', 'stop_lat': -23.518744, 'stop_lon': -46.835417, 'stop_location_type': 'Rail'}"
18957,"{'stop_name': 'General Miguel Costa', 'stop_lat': -23.523639, 'stop_lon': -46.815998, 'stop_location_type': 'Rail'}"
18958,"{'stop_name': 'Quitaúna', 'stop_lat': -23.522871, 'stop_lon': -46.807085, 'stop_location_type': 'Rail'}"
18959,"{'stop_name': 'Comandante Sampaio', 'stop_lat': -23.52599, 'stop_lon': -46.796059, 'stop_location_type': 'Rail'}"
18960,"{'stop_name': 'Osasco', 'stop_lat': -23.527834, 'stop_lon': -46.776007, 'stop_location_type': 'Rail'}"
18961,"{'stop_name': 'Presidente Altino', 'stop_lat': -23.530423, 'stop_lon': -46.760577, 'stop_location_type': 'Rail'}"
18962,"{'stop_name': 'Ceasa', 'stop_lat': -23.538372, 'stop_lon': -46.741543, 'stop_location_type': 'Rail'}"
18963,"{'stop_name': 'Villa Lobos- Jaguaré', 'stop_lat': -23.546718, 'stop_lon': -46.732079, 'stop_location_type': 'Rail'}"
18964,"{'stop_name': 'Imperatriz Leopoldina', 'stop_lat': -23.523749, 'stop_lon': -46.737662, 'stop_location_type': 'Rail'}"
18965,"{'stop_name': 'Pirituba', 'stop_lat': -23.488464, 'stop_lon': -46.726058, 'stop_location_type': 'Rail'}"
18966,"{'stop_name': 'Pinheiros', 'stop_lat': -23.566631, 'stop_lon': -46.703082, 'stop_location_type': 'Rail'}"
18967,"{'stop_name': 'Cidade Universitária', 'stop_lat': -23.55757, 'stop_lon': -46.712434, 'stop_location_type': 'Rail'}"
18968,"{'stop_name': 'Hebraica - Rebouças', 'stop_lat': -23.573822, 'stop_lon': -46.698634, 'stop_location_type': 'Rail'}"
18969,"{'stop_name': 'Domingos De Moraes', 'stop_lat': -23.518787, 'stop_lon': -46.721665, 'stop_location_type': 'Rail'}"
18971,"{'stop_name': 'Francisco Morato', 'stop_lat': -23.284893, 'stop_lon': -46.742046, 'stop_location_type': 'Rail'}"
18972,"{'stop_name': 'Botujuru', 'stop_lat': -23.23541, 'stop_lon': -46.767932, 'stop_location_type': 'Rail'}"
18973,"{'stop_name': 'Campo Limpo Paulista', 'stop_lat': -23.207264, 'stop_lon': -46.784873, 'stop_location_type': 'Rail'}"
18974,"{'stop_name': 'Várzea Paulista', 'stop_lat': -23.208824, 'stop_lon': -46.829012, 'stop_location_type': 'Rail'}"
18975,"{'stop_name': 'Jundiai', 'stop_lat': -23.195643, 'stop_lon': -46.8719, 'stop_location_type': 'Rail'}"
18976,"{'stop_name': 'Itaquaquecetuba', 'stop_lat': -23.48577, 'stop_lon': -46.348456, 'stop_location_type': 'Rail'}"
18978,"{'stop_name': 'Jundiapeba', 'stop_lat': -23.542687, 'stop_lon': -46.256308, 'stop_location_type': 'Rail'}"
18979,"{'stop_name': 'Brás Cubas', 'stop_lat': -23.536255, 'stop_lon': -46.225325, 'stop_location_type': 'Rail'}"
18980,"{'stop_name': 'Mogi Das Cruzes', 'stop_lat': -23.521185, 'stop_lon': -46.197135, 'stop_location_type': 'Rail'}"
18981,"{'stop_name': 'Estudantes', 'stop_lat': -23.515696, 'stop_lon': -46.18493, 'stop_location_type': 'Rail'}"
18984,"{'stop_name': 'Ana Rosa', 'stop_lat': -23.581388, 'stop_lon': -46.638455, 'stop_location_type': 'Metro'}"
18985,"{'stop_name': 'Palmeiras - Barra Funda', 'stop_lat': -23.525592, 'stop_lon': -46.666651, 'stop_location_type': 'Rail'}"
18986,"{'stop_name': 'Palmeiras - Barra Funda', 'stop_lat': -23.525703, 'stop_lon': -46.666803, 'stop_location_type': 'Metro'}"
18987,"{'stop_name': 'Brás', 'stop_lat': -23.545461, 'stop_lon': -46.616228, 'stop_location_type': 'Rail'}"
18989,"{'stop_name': 'Paraíso', 'stop_lat': -23.5753, 'stop_lon': -46.6408, 'stop_location_type': 'Metro'}"
19000,"{'stop_name': 'Sé', 'stop_lat': -23.550611, 'stop_lon': -46.633505, 'stop_location_type': 'Metro'}"
19040,"{'stop_name': 'Largo Treze', 'stop_lat': -23.654465, 'stop_lon': -46.710305, 'stop_location_type': 'Metro'}"
19041,"{'stop_name': 'Santo Amaro', 'stop_lat': -23.655575, 'stop_lon': -46.721095, 'stop_location_type': 'Metro'}"
19042,"{'stop_name': 'Giovanni Gronchi', 'stop_lat': -23.643975, 'stop_lon': -46.734112, 'stop_location_type': 'Metro'}"
19043,"{'stop_name': 'Vila Das Belezas', 'stop_lat': -23.640331, 'stop_lon': -46.745882, 'stop_location_type': 'Metro'}"
19044,"{'stop_name': 'Campo Limpo', 'stop_lat': -23.648987, 'stop_lon': -46.758878, 'stop_location_type': 'Metro'}"
19045,"{'stop_name': 'Capão Redondo', 'stop_lat': -23.659955, 'stop_lon': -46.768691, 'stop_location_type': 'Metro'}"
19070,"{'stop_name': 'Via Transversal Sul', 'stop_lat': -23.580717, 'stop_lon': -46.794016, 'stop_location_type': 'Bus'}"
19071,"{'stop_name': 'Av. Dos Ourives, 780', 'stop_lat': -23.655442, 'stop_lon': -46.607946, 'stop_location_type': 'Bus'}"
19072,"{'stop_name': 'Av. Dos Ourives, 780', 'stop_lat': -23.655265, 'stop_lon': -46.607882, 'stop_location_type': 'Bus'}"
19073,"{'stop_name': 'Rod. Arão Sahm, 25020', 'stop_lat': -23.373502, 'stop_lon': -46.575335, 'stop_location_type': 'Bus'}"
19076,"{'stop_name': 'Estr. Mombaça, 1', 'stop_lat': -23.734689, 'stop_lon': -46.796429, 'stop_location_type': 'Bus'}"
19077,"{'stop_name': 'Av. Intercontinental, 625', 'stop_lat': -23.601516, 'stop_lon': -46.753583, 'stop_location_type': 'Bus'}"
104763,"{'stop_name': 'Av. Luca, 455', 'stop_lat': -23.569481, 'stop_lon': -46.559044, 'stop_location_type': 'Bus'}"
105268,"{'stop_name': 'R. Montezina, 226', 'stop_lat': -23.574844, 'stop_lon': -46.569858, 'stop_location_type': 'Bus'}"
105368,"{'stop_name': 'R. Do Orfanato, 1795', 'stop_lat': -23.573757, 'stop_lon': -46.570172, 'stop_location_type': 'Bus'}"
105388,"{'stop_name': 'Av. Sapopemba, 1985', 'stop_lat': -23.572199, 'stop_lon': -46.569076, 'stop_location_type': 'Bus'}"
105424,"{'stop_name': 'R. Farol Paulistano, 86', 'stop_lat': -23.571971, 'stop_lon': -46.577453, 'stop_location_type': 'Bus'}"
105431,"{'stop_name': 'R. Pirassununga, 815', 'stop_lat': -23.563638, 'stop_lon': -46.578721, 'stop_location_type': 'Bus'}"
105432,"{'stop_name': 'R. Pirassununga, 1110', 'stop_lat': -23.566062, 'stop_lon': -46.580119, 'stop_location_type': 'Bus'}"
109574,"{'stop_name': 'R. Fernando Falcão, 25', 'stop_lat': -23.554218, 'stop_lon': -46.583823, 'stop_location_type': 'Bus'}"
109576,"{'stop_name': 'R. Tié, 84', 'stop_lat': -23.55691, 'stop_lon': -46.581024, 'stop_location_type': 'Bus'}"
109594,"{'stop_name': 'R. Diogo Lopes, 67', 'stop_lat': -23.5621, 'stop_lon': -46.576811, 'stop_location_type': 'Bus'}"
109595,"{'stop_name': 'R. Pirassununga, 826', 'stop_lat': -23.563852, 'stop_lon': -46.578953, 'stop_location_type': 'Bus'}"
109731,"{'stop_name': 'Pça. Tristão Da Cunha, 86', 'stop_lat': -23.568991, 'stop_lon': -46.578059, 'stop_location_type': 'Bus'}"
109733,"{'stop_name': 'Av. Salim Farah Maluf, 3200', 'stop_lat': -23.557134, 'stop_lon': -46.57783, 'stop_location_type': 'Bus'}"
109738,"{'stop_name': 'R. Campo Largo, 475', 'stop_lat': -23.567385, 'stop_lon': -46.5811, 'stop_location_type': 'Bus'}"
109739,"{'stop_name': 'R. Dr. José Higino, 78', 'stop_lat': -23.568491, 'stop_lon': -46.581779, 'stop_location_type': 'Bus'}"
109740,"{'stop_name': 'R. Lituânia, 330', 'stop_lat': -23.563491, 'stop_lon': -46.588985, 'stop_location_type': 'Bus'}"
109741,"{'stop_name': 'R. Lituânia, 613', 'stop_lat': -23.564467, 'stop_lon': -46.586589, 'stop_location_type': 'Bus'}"
109749,"{'stop_name': 'R. Barretos, 581', 'stop_lat': -23.565979, 'stop_lon': -46.585566, 'stop_location_type': 'Bus'}"
109751,"{'stop_name': 'R. Corumbaíba, 728', 'stop_lat': -23.571378, 'stop_lon': -46.576358, 'stop_location_type': 'Bus'}"
109754,"{'stop_name': 'Av. Luca, 861', 'stop_lat': -23.569279, 'stop_lon': -46.557136, 'stop_location_type': 'Bus'}"
109759,"{'stop_name': 'R. Pirassununga, 1313', 'stop_lat': -23.567859, 'stop_lon': -46.580223, 'stop_location_type': 'Bus'}"
109761,"{'stop_name': 'R. Pirajá, 347', 'stop_lat': -23.562059, 'stop_lon': -46.575916, 'stop_location_type': 'Bus'}"
109762,"{'stop_name': 'R. Corumbaíba, 238', 'stop_lat': -23.569985, 'stop_lon': -46.576826, 'stop_location_type': 'Bus'}"
109765,"{'stop_name': 'Av. Salim Farah Maluf, 2100', 'stop_lat': -23.552232, 'stop_lon': -46.577653, 'stop_location_type': 'Bus'}"
109773,"{'stop_name': 'R. Siqueira Bueno, 1916', 'stop_lat': -23.552927, 'stop_lon': -46.585032, 'stop_location_type': 'Bus'}"
109775,"{'stop_name': 'R. Sebastião Barbosa, 37', 'stop_lat': -23.55287, 'stop_lon': -46.574698, 'stop_location_type': 'Bus'}"
109776,"{'stop_name': 'Pça. Ituzaingo, 10', 'stop_lat': -23.55276, 'stop_lon': -46.572316, 'stop_location_type': 'Bus'}"
109777,"{'stop_name': 'R. Pirassununga, 1071', 'stop_lat': -23.565928, 'stop_lon': -46.580013, 'stop_location_type': 'Bus'}"
109778,"{'stop_name': 'Av. Salim Farah Maluf, 3117', 'stop_lat': -23.556718, 'stop_lon': -46.577175, 'stop_location_type': 'Bus'}"
109784,"{'stop_name': 'R. Lituânia, 566', 'stop_lat': -23.564386, 'stop_lon': -46.587162, 'stop_location_type': 'Bus'}"
109785,"{'stop_name': 'R. Guandu, 8', 'stop_lat': -23.556935, 'stop_lon': -46.569623, 'stop_location_type': 'Bus'}"
210999,"{'stop_name': 'R. Livi, 473', 'stop_lat': -23.547121, 'stop_lon': -46.700656, 'stop_location_type': 'Bus'}"
211000,"{'stop_name': 'R. Livi, 346', 'stop_lat': -23.545968, 'stop_lon': -46.700768, 'stop_location_type': 'Bus'}"
211121,"{'stop_name': 'R. Pio Xi, 1480', 'stop_lat': -23.536022, 'stop_lon': -46.714262, 'stop_location_type': 'Bus'}"
211122,"{'stop_name': 'R. S. Domingos Savio, 160', 'stop_lat': -23.536739, 'stop_lon': -46.713576, 'stop_location_type': 'Bus'}"
211147,"{'stop_name': 'Av. Arruda Botelho, 255', 'stop_lat': -23.550196, 'stop_lon': -46.717396, 'stop_location_type': 'Bus'}"
211148,"{'stop_name': 'Av. Arruda Botelho, 595', 'stop_lat': -23.552927, 'stop_lon': -46.71884, 'stop_location_type': 'Bus'}"
211157,"{'stop_name': 'R. Da. Elisa Moraes Mendes, 1199', 'stop_lat': -23.551962, 'stop_lon': -46.707761, 'stop_location_type': 'Bus'}"
211191,"{'stop_name': 'Av. S. Gualter, 1850', 'stop_lat': -23.551015, 'stop_lon': -46.709414, 'stop_location_type': 'Bus'}"
211193,"{'stop_name': 'R. Da. Elisa Moraes Mendes, 1280', 'stop_lat': -23.552654, 'stop_lon': -46.708362, 'stop_location_type': 'Bus'}"
211227,"{'stop_name': 'Av. Pe. Pereira De Andrade, 100', 'stop_lat': -23.538171, 'stop_lon': -46.719704, 'stop_location_type': 'Bus'}"
211241,"{'stop_name': 'Av. Dra. Ruth Cardoso, 4797', 'stop_lat': -23.551839, 'stop_lon': -46.722569, 'stop_location_type': 'Bus'}"
211256,"{'stop_name': 'R. Dr. Alberto Seabra, 402', 'stop_lat': -23.547587, 'stop_lon': -46.708644, 'stop_location_type': 'Bus'}"
211262,"{'stop_name': 'R. Dr. Alberto Seabra, 1175', 'stop_lat': -23.541231, 'stop_lon': -46.705945, 'stop_location_type': 'Bus'}"
211269,"{'stop_name': 'Av. Pedroso De Moraes, 2538', 'stop_lat': -23.555119, 'stop_lon': -46.705697, 'stop_location_type': 'Bus'}"
211270,"{'stop_name': 'Av. Arruda Botelho, 262', 'stop_lat': -23.5503, 'stop_lon': -46.71789, 'stop_location_type': 'Bus'}"
211273,"{'stop_name': 'R. Nazareth Paulista, 320', 'stop_lat': -23.545726, 'stop_lon': -46.69938, 'stop_location_type': 'Bus'}"
211274,"{'stop_name': 'R. Nazareth Paulista, 223', 'stop_lat': -23.5456, 'stop_lon': -46.700349, 'stop_location_type': 'Bus'}"
211275,"{'stop_name': 'Av. Prof. Fonseca Rodrigues, 689', 'stop_lat': -23.549045, 'stop_lon': -46.714419, 'stop_location_type': 'Bus'}"
211276,"{'stop_name': 'R. Das Tabocas, 202', 'stop_lat': -23.550716, 'stop_lon': -46.697987, 'stop_location_type': 'Bus'}"
211278,"{'stop_name': 'R. Pio Xi, 2038', 'stop_lat': -23.54038, 'stop_lon': -46.713928, 'stop_location_type': 'Bus'}"
211279,"{'stop_name': 'R. Ibiraçu, 179', 'stop_lat': -23.542689, 'stop_lon': -46.700338, 'stop_location_type': 'Bus'}"
301075,"{'stop_name': 'Estr. Cel. José Gladiador, 400', 'stop_lat': -23.442484, 'stop_lon': -46.796363, 'stop_location_type': 'Bus'}"
301087,"{'stop_name': 'Av. Felippo Sturba, 685', 'stop_lat': -23.440339, 'stop_lon': -46.790203, 'stop_location_type': 'Bus'}"
301567,"{'stop_name': 'R. Diego Velasquez, 194', 'stop_lat': -23.431892, 'stop_lon': -46.789126, 'stop_location_type': 'Bus'}"
301573,"{'stop_name': 'R. Nestor Gomes, 105', 'stop_lat': -23.431512, 'stop_lon': -46.793126, 'stop_location_type': 'Bus'}"
301578,"{'stop_name': 'R. Alberto Alvarez, 189', 'stop_lat': -23.430024, 'stop_lon': -46.794481, 'stop_location_type': 'Bus'}"
301646,"{'stop_name': 'R. Itabira Do Mato, 53', 'stop_lat': -23.446529, 'stop_lon': -46.803318, 'stop_location_type': 'Bus'}"
301671,"{'stop_name': 'Av. Da Solidariedade, 23', 'stop_lat': -23.43718, 'stop_lon': -46.805737, 'stop_location_type': 'Bus'}"
301672,"{'stop_name': 'Av. Da Solidariedade, 111', 'stop_lat': -23.43923, 'stop_lon': -46.807039, 'stop_location_type': 'Bus'}"
301674,"{'stop_name': 'Estr. Cel. José Gladiador', 'stop_lat': -23.442419, 'stop_lon': -46.796187, 'stop_location_type': 'Bus'}"
301678,"{'stop_name': 'Av. Felippo Sturba, 112', 'stop_lat': -23.43906, 'stop_lon': -46.789962, 'stop_location_type': 'Bus'}"
301679,"{'stop_name': 'Av. Felippo Sturba, 390', 'stop_lat': -23.440333, 'stop_lon': -46.790333, 'stop_location_type': 'Bus'}"
301680,"{'stop_name': 'Av. Felippo Sturba, 866', 'stop_lat': -23.443893, 'stop_lon': -46.791584, 'stop_location_type': 'Bus'}"
301681,"{'stop_name': 'Av. Felippo Sturba, 790', 'stop_lat': -23.445365, 'stop_lon': -46.791993, 'stop_location_type': 'Bus'}"
301682,"{'stop_name': 'Av. Felippo Sturba, 1000', 'stop_lat': -23.449411, 'stop_lon': -46.793787, 'stop_location_type': 'Bus'}"
301683,"{'stop_name': 'Av. Felippo Sturba, 1317', 'stop_lat': -23.449543, 'stop_lon': -46.793771, 'stop_location_type': 'Bus'}"
301684,"{'stop_name': 'Av. Felippo Sturba', 'stop_lat': -23.447396, 'stop_lon': -46.792568, 'stop_location_type': 'Bus'}"
301686,"{'stop_name': 'R. Francisco Bellazi, 289', 'stop_lat': -23.450869, 'stop_lon': -46.79071, 'stop_location_type': 'Bus'}"
301687,"{'stop_name': 'R. Francisco Bellazi, 521', 'stop_lat': -23.452273, 'stop_lon': -46.792456, 'stop_location_type': 'Bus'}"
301691,"{'stop_name': 'R. Mário Palmerio, 193', 'stop_lat': -23.438792, 'stop_lon': -46.791306, 'stop_location_type': 'Bus'}"
301692,"{'stop_name': 'R. Tancredo Neves, 46', 'stop_lat': -23.437343, 'stop_lon': -46.80343, 'stop_location_type': 'Bus'}"
301693,"{'stop_name': 'Estr. De Pirapora, 850', 'stop_lat': -23.43134, 'stop_lon': -46.800551, 'stop_location_type': 'Bus'}"
301697,"{'stop_name': 'R. Dalva De Oliveira, 70', 'stop_lat': -23.438349, 'stop_lon': -46.802298, 'stop_location_type': 'Bus'}"
301698,"{'stop_name': 'R. Preste, 12', 'stop_lat': -23.436158, 'stop_lon': -46.804023, 'stop_location_type': 'Bus'}"
301699,"{'stop_name': 'R. Tancredo Neves, 46', 'stop_lat': -23.437337, 'stop_lon': -46.803267, 'stop_location_type': 'Bus'}"
301700,"{'stop_name': 'R. Elis Regina, 170', 'stop_lat': -23.43763, 'stop_lon': -46.804526, 'stop_location_type': 'Bus'}"
301701,"{'stop_name': 'R. Preste, 2', 'stop_lat': -23.436138, 'stop_lon': -46.804151, 'stop_location_type': 'Bus'}"
301702,"{'stop_name': 'R. Recife, 51', 'stop_lat': -23.435635, 'stop_lon': -46.809855, 'stop_location_type': 'Bus'}"
301709,"{'stop_name': 'Rod. Anhanguera (pista Local)', 'stop_lat': -23.442306, 'stop_lon': -46.786212, 'stop_location_type': 'Bus'}"
301711,"{'stop_name': 'R. Albert Jansen', 'stop_lat': -23.44573, 'stop_lon': -46.789183, 'stop_location_type': 'Bus'}"
301712,"{'stop_name': 'R. Alexandre Caturla, 4', 'stop_lat': -23.443804, 'stop_lon': -46.786332, 'stop_location_type': 'Bus'}"
301713,"{'stop_name': 'R. Alexandre Caturla, 161', 'stop_lat': -23.44395, 'stop_lon': -46.786456, 'stop_location_type': 'Bus'}"
301714,"{'stop_name': 'Estr. De Pirapora', 'stop_lat': -23.436426, 'stop_lon': -46.805789, 'stop_location_type': 'Bus'}"
301715,"{'stop_name': 'Estr. De Pirapora, 93', 'stop_lat': -23.436525, 'stop_lon': -46.805893, 'stop_location_type': 'Bus'}"
301716,"{'stop_name': 'Estr. De Pirapora, 241', 'stop_lat': -23.437681, 'stop_lon': -46.808417, 'stop_location_type': 'Bus'}"
301717,"{'stop_name': 'Estr. De Pirapora', 'stop_lat': -23.435614, 'stop_lon': -46.802456, 'stop_location_type': 'Bus'}"
301718,"{'stop_name': 'R. Recife', 'stop_lat': -23.436694, 'stop_lon': -46.810744, 'stop_location_type': 'Bus'}"
301720,"{'stop_name': 'Estr. De Pirapora', 'stop_lat': -23.43537, 'stop_lon': -46.802816, 'stop_location_type': 'Bus'}"
301721,"{'stop_name': 'R. Osorio Alves De Castro, 17', 'stop_lat': -23.44877, 'stop_lon': -46.788268, 'stop_location_type': 'Bus'}"
301724,"{'stop_name': 'R. Delsuc Alves De Magalhães, 538', 'stop_lat': -23.435469, 'stop_lon': -46.791522, 'stop_location_type': 'Bus'}"
301729,"{'stop_name': 'Terminal Jardim Britânia', 'stop_lat': -23.432142, 'stop_lon': -46.787093, 'stop_location_type': 'Bus'}"
301730,"{'stop_name': 'Estr. Cel. José Gladiador, 262', 'stop_lat': -23.435386, 'stop_lon': -46.791885, 'stop_location_type': 'Bus'}"
301731,"{'stop_name': 'Rod. Anhanguera (pista Local)', 'stop_lat': -23.442393, 'stop_lon': -46.786298, 'stop_location_type': 'Bus'}"
301732,"{'stop_name': 'Estr. De Ligação, 2375', 'stop_lat': -23.438879, 'stop_lon': -46.765932, 'stop_location_type': 'Bus'}"
301733,"{'stop_name': 'Estr. De Ligação, 2375', 'stop_lat': -23.438793, 'stop_lon': -46.765945, 'stop_location_type': 'Bus'}"
301735,"{'stop_name': 'Av. Euclides Da Cunha, 54', 'stop_lat': -23.43261, 'stop_lon': -46.781497, 'stop_location_type': 'Bus'}"
301736,"{'stop_name': 'R. Denis Brean (p. Morro Doce-anh), 252', 'stop_lat': -23.451236, 'stop_lon': -46.794341, 'stop_location_type': 'Bus'}"
301737,"{'stop_name': 'R. Denis Brean (p. Morro Doce-anh), 252', 'stop_lat': -23.451222, 'stop_lon': -46.794275, 'stop_location_type': 'Bus'}"
301738,"{'stop_name': 'R. George Dantu', 'stop_lat': -23.413595, 'stop_lon': -46.808203, 'stop_location_type': 'Bus'}"
301739,"{'stop_name': 'R. George Dantu', 'stop_lat': -23.413548, 'stop_lon': -46.808068, 'stop_location_type': 'Bus'}"
301740,"{'stop_name': 'R. Enéas De Camargo', 'stop_lat': -23.415927, 'stop_lon': -46.807252, 'stop_location_type': 'Bus'}"
301741,"{'stop_name': 'R. Aloisio Magalhães', 'stop_lat': -23.416854, 'stop_lon': -46.809004, 'stop_location_type': 'Bus'}"
301743,"{'stop_name': 'R. George Dantu, 250', 'stop_lat': -23.415388, 'stop_lon': -46.810043, 'stop_location_type': 'Bus'}"
301745,"{'stop_name': 'R. Enéas De Camargo, 453', 'stop_lat': -23.418517, 'stop_lon': -46.805343, 'stop_location_type': 'Bus'}"
301746,"{'stop_name': 'Rod. Anhanguera', 'stop_lat': -23.414728, 'stop_lon': -46.805338, 'stop_location_type': 'Bus'}"
301747,"{'stop_name': 'Rod. Anhanguera', 'stop_lat': -23.410614, 'stop_lon': -46.818406, 'stop_location_type': 'Bus'}"
301749,"{'stop_name': 'Rod. Anhanguera', 'stop_lat': -23.422023, 'stop_lon': -46.792222, 'stop_location_type': 'Bus'}"
301751,"{'stop_name': 'R. Leopoldo De Passos Lima, 182', 'stop_lat': -23.430417, 'stop_lon': -46.78897, 'stop_location_type': 'Bus'}"
301752,"{'stop_name': 'R. Dr. Nilo Cairo', 'stop_lat': -23.411971, 'stop_lon': -46.813997, 'stop_location_type': 'Bus'}"
301753,"{'stop_name': 'R. Dr. Nilo Cairo', 'stop_lat': -23.412931, 'stop_lon': -46.812515, 'stop_location_type': 'Bus'}"
301754,"{'stop_name': 'R. Dr. Nilo Cairo', 'stop_lat': -23.412863, 'stop_lon': -46.812419, 'stop_location_type': 'Bus'}"
301755,"{'stop_name': 'R. Leonel Martiniano, 246', 'stop_lat': -23.414108, 'stop_lon': -46.811952, 'stop_location_type': 'Bus'}"
301756,"{'stop_name': 'R. Leonel Martiniano, 250', 'stop_lat': -23.414004, 'stop_lon': -46.812114, 'stop_location_type': 'Bus'}"
301758,"{'stop_name': 'R. Albert Jansen', 'stop_lat': -23.448385, 'stop_lon': -46.789081, 'stop_location_type': 'Bus'}"
301759,"{'stop_name': 'R. Albert Jansen', 'stop_lat': -23.44842, 'stop_lon': -46.789309, 'stop_location_type': 'Bus'}"
301760,"{'stop_name': 'R. Leopoldo De Passos Lima, 182', 'stop_lat': -23.430304, 'stop_lon': -46.788987, 'stop_location_type': 'Bus'}"
301761,"{'stop_name': 'Estr. De Perus, 1100', 'stop_lat': -23.415978, 'stop_lon': -46.780547, 'stop_location_type': 'Bus'}"
301763,"{'stop_name': 'R. Delsuc Alves De Magalhães, 265', 'stop_lat': -23.435689, 'stop_lon': -46.788772, 'stop_location_type': 'Bus'}"
301764,"{'stop_name': 'R. Delsuc Alves De Magalhães, 194', 'stop_lat': -23.435427, 'stop_lon': -46.78846, 'stop_location_type': 'Bus'}"
301765,"{'stop_name': 'R. Francisco Bellazi, 109', 'stop_lat': -23.449748, 'stop_lon': -46.789073, 'stop_location_type': 'Bus'}"
301766,"{'stop_name': 'R. Francisco Bellazi, 92', 'stop_lat': -23.44955, 'stop_lon': -46.78884, 'stop_location_type': 'Bus'}"
301767,"{'stop_name': 'R. Mário Palmerio, 186', 'stop_lat': -23.438799, 'stop_lon': -46.791078, 'stop_location_type': 'Bus'}"
301768,"{'stop_name': 'Av. Da Solidariedade, 24', 'stop_lat': -23.437188, 'stop_lon': -46.805763, 'stop_location_type': 'Bus'}"
301771,"{'stop_name': 'R. Lagoa Do Morro', 'stop_lat': -23.444382, 'stop_lon': -46.799485, 'stop_location_type': 'Bus'}"
301772,"{'stop_name': 'R. Recife, 73', 'stop_lat': -23.434516, 'stop_lon': -46.809742, 'stop_location_type': 'Bus'}"
301773,"{'stop_name': 'R. Osorio Alves De Castro, 22', 'stop_lat': -23.449117, 'stop_lon': -46.788154, 'stop_location_type': 'Bus'}"
301774,"{'stop_name': 'Estr. Cel. José Gladiador, 551', 'stop_lat': -23.437657, 'stop_lon': -46.793129, 'stop_location_type': 'Bus'}"
301775,"{'stop_name': 'Estr. Cel. José Gladiador, 769', 'stop_lat': -23.438884, 'stop_lon': -46.794324, 'stop_location_type': 'Bus'}"
301776,"{'stop_name': 'Estr. Cel. José Gladiador, 805', 'stop_lat': -23.43922, 'stop_lon': -46.794707, 'stop_location_type': 'Bus'}"
301777,"{'stop_name': 'Av. Tte. Marquês', 'stop_lat': -23.409145, 'stop_lon': -46.823674, 'stop_location_type': 'Bus'}"
301778,"{'stop_name': 'Av. Tte. Marquês', 'stop_lat': -23.408975, 'stop_lon': -46.82264, 'stop_location_type': 'Bus'}"
301779,"{'stop_name': 'R. Recife, 28', 'stop_lat': -23.436418, 'stop_lon': -46.810531, 'stop_location_type': 'Bus'}"
301780,"{'stop_name': 'R. Dalva De Oliveira, 75', 'stop_lat': -23.438467, 'stop_lon': -46.802185, 'stop_location_type': 'Bus'}"
301783,"{'stop_name': 'R. Dos Vitoriosos, 1', 'stop_lat': -23.436355, 'stop_lon': -46.802648, 'stop_location_type': 'Bus'}"
301784,"{'stop_name': 'R. Minas Gerais, 12', 'stop_lat': -23.436346, 'stop_lon': -46.802331, 'stop_location_type': 'Bus'}"
301785,"{'stop_name': 'Terminal Jardim Britânia', 'stop_lat': -23.431538, 'stop_lon': -46.787191, 'stop_location_type': 'Bus'}"
301788,"{'stop_name': 'Terminal Jardim Britânia', 'stop_lat': -23.431644, 'stop_lon': -46.787175, 'stop_location_type': 'Bus'}"
301789,"{'stop_name': 'Terminal Jardim Britânia', 'stop_lat': -23.431805, 'stop_lon': -46.787148, 'stop_location_type': 'Bus'}"
301790,"{'stop_name': 'Terminal Jardim Britânia', 'stop_lat': -23.431924, 'stop_lon': -46.787131, 'stop_location_type': 'Bus'}"
301791,"{'stop_name': 'Estr. De Pirapora, 1000', 'stop_lat': -23.434096, 'stop_lon': -46.800786, 'stop_location_type': 'Bus'}"
301792,"{'stop_name': 'Estr. De Pirapora, 1000', 'stop_lat': -23.434406, 'stop_lon': -46.801068, 'stop_location_type': 'Bus'}"
301793,"{'stop_name': 'R. D. Agnelo Rossi, 90', 'stop_lat': -23.439232, 'stop_lon': -46.793185, 'stop_location_type': 'Bus'}"
301794,"{'stop_name': 'R. Luiz Domingues De Castro, 61', 'stop_lat': -23.441499, 'stop_lon': -46.790599, 'stop_location_type': 'Bus'}"
301795,"{'stop_name': 'R. Luiz Domingues De Castro, 49', 'stop_lat': -23.441588, 'stop_lon': -46.790548, 'stop_location_type': 'Bus'}"
301796,"{'stop_name': 'R. Luiz Domingues De Castro, 396', 'stop_lat': -23.441371, 'stop_lon': -46.793708, 'stop_location_type': 'Bus'}"
301797,"{'stop_name': 'R. Luiz Domingues De Castro, 419', 'stop_lat': -23.441277, 'stop_lon': -46.79356, 'stop_location_type': 'Bus'}"
301799,"{'stop_name': 'R. Alberto Callix', 'stop_lat': -23.441277, 'stop_lon': -46.794912, 'stop_location_type': 'Bus'}"
301800,"{'stop_name': 'R. Alberto Callix, 76', 'stop_lat': -23.440975, 'stop_lon': -46.794961, 'stop_location_type': 'Bus'}"
301801,"{'stop_name': 'R. Ubirajara Donizete De Andrade, 326', 'stop_lat': -23.440922, 'stop_lon': -46.792922, 'stop_location_type': 'Bus'}"
301802,"{'stop_name': 'R. Júlio Vicente Ferreira, 1094', 'stop_lat': -23.440727, 'stop_lon': -46.793257, 'stop_location_type': 'Bus'}"
404584,"{'stop_name': 'Av. Mons. Antônio De Castro, 676', 'stop_lat': -23.571981, 'stop_lon': -46.523664, 'stop_location_type': 'Bus'}"
404590,"{'stop_name': 'Av. Cipriano Rodrigues, 27', 'stop_lat': -23.576219, 'stop_lon': -46.527823, 'stop_location_type': 'Bus'}"
404592,"{'stop_name': 'Av. Cipriano Rodrigues, 908', 'stop_lat': -23.577026, 'stop_lon': -46.525923, 'stop_location_type': 'Bus'}"
404595,"{'stop_name': 'Av. Cipriano Rodrigues, 1160', 'stop_lat': -23.576888, 'stop_lon': -46.5238, 'stop_location_type': 'Bus'}"
404596,"{'stop_name': 'Av. Cipriano Rodrigues, 67', 'stop_lat': -23.576676, 'stop_lon': -46.521971, 'stop_location_type': 'Bus'}"
404597,"{'stop_name': 'Av. Cipriano Rodrigues, 133', 'stop_lat': -23.576299, 'stop_lon': -46.521375, 'stop_location_type': 'Bus'}"
404598,"{'stop_name': 'Av. Dos Nacionalistas, 347', 'stop_lat': -23.576619, 'stop_lon': -46.51706, 'stop_location_type': 'Bus'}"
404599,"{'stop_name': 'Av. Dos Nacionalistas, 386', 'stop_lat': -23.576674, 'stop_lon': -46.516937, 'stop_location_type': 'Bus'}"
404602,"{'stop_name': 'Av. Dos Nacionalistas, 459', 'stop_lat': -23.577057, 'stop_lon': -46.515625, 'stop_location_type': 'Bus'}"
404636,"{'stop_name': 'Av. Rio Das Pedras, 2451', 'stop_lat': -23.574454, 'stop_lon': -46.504856, 'stop_location_type': 'Bus'}"
404643,"{'stop_name': 'Av. Dos Nacionalistas, 640', 'stop_lat': -23.577613, 'stop_lon': -46.514679, 'stop_location_type': 'Bus'}"
404724,"{'stop_name': 'Av. Pst. Cicero Canuto De Lima, 762', 'stop_lat': -23.580063, 'stop_lon': -46.504954, 'stop_location_type': 'Bus'}"
404729,"{'stop_name': 'Av. Pst. Cicero Canuto De Lima, 249', 'stop_lat': -23.579897, 'stop_lon': -46.510115, 'stop_location_type': 'Bus'}"
404732,"{'stop_name': 'Av. Pst. Cicero Canuto De Lima, 285', 'stop_lat': -23.580064, 'stop_lon': -46.509688, 'stop_location_type': 'Bus'}"
404733,"{'stop_name': 'Av. Pst. Cicero Canuto De Lima, 10', 'stop_lat': -23.579372, 'stop_lon': -46.512368, 'stop_location_type': 'Bus'}"
404734,"{'stop_name': 'Av. Dos Nacionalistas, 920', 'stop_lat': -23.579305, 'stop_lon': -46.512646, 'stop_location_type': 'Bus'}"
404735,"{'stop_name': 'R. Dos Fonsecas, 171', 'stop_lat': -23.579529, 'stop_lon': -46.50797, 'stop_location_type': 'Bus'}"
408848,"{'stop_name': 'Av. Aricanduva, 4630', 'stop_lat': -23.560734, 'stop_lon': -46.512483, 'stop_location_type': 'Bus'}"
408989,"{'stop_name': 'Av. João XxIII, 1386', 'stop_lat': -23.569976, 'stop_lon': -46.528901, 'stop_location_type': 'Bus'}"
408991,"{'stop_name': 'R. Tuma Maluly, 85', 'stop_lat': -23.585337, 'stop_lon': -46.510767, 'stop_location_type': 'Bus'}"
408997,"{'stop_name': 'Av. Pst. Cicero Canuto De Lima, 489', 'stop_lat': -23.579998, 'stop_lon': -46.507414, 'stop_location_type': 'Bus'}"
409027,"{'stop_name': 'R. Tuma Maluly, 87', 'stop_lat': -23.588897, 'stop_lon': -46.509992, 'stop_location_type': 'Bus'}"
409048,"{'stop_name': 'Parada 2', 'stop_lat': -23.565542, 'stop_lon': -46.507817, 'stop_location_type': 'Bus'}"
409050,"{'stop_name': 'Av. Inconfidência Mineira, 1997', 'stop_lat': -23.570684, 'stop_lon': -46.509236, 'stop_location_type': 'Bus'}"
409051,"{'stop_name': 'Av. Francisco José Rezende, 138', 'stop_lat': -23.567969, 'stop_lon': -46.507183, 'stop_location_type': 'Bus'}"
409052,"{'stop_name': 'Av. Odilon Pires, 235', 'stop_lat': -23.565666, 'stop_lon': -46.509179, 'stop_location_type': 'Bus'}"
409054,"{'stop_name': 'R. João Galli, 45', 'stop_lat': -23.58364, 'stop_lon': -46.525041, 'stop_location_type': 'Bus'}"
409058,"{'stop_name': 'R. Nello Selmi Dei, 44', 'stop_lat': -23.580389, 'stop_lon': -46.509825, 'stop_location_type': 'Bus'}"
409059,"{'stop_name': 'Av. Rio Das Pedras, 1458', 'stop_lat': -23.567647, 'stop_lon': -46.510366, 'stop_location_type': 'Bus'}"
409060,"{'stop_name': 'R. Manuel Figueiredo, 36', 'stop_lat': -23.573403, 'stop_lon': -46.523575, 'stop_location_type': 'Bus'}"
409061,"{'stop_name': 'Av. Mons. Antônio De Castro, 685', 'stop_lat': -23.571969, 'stop_lon': -46.523548, 'stop_location_type': 'Bus'}"
409063,"{'stop_name': 'R. Amélia Vanso Magnoli, 120', 'stop_lat': -23.588049, 'stop_lon': -46.508926, 'stop_location_type': 'Bus'}"
409065,"{'stop_name': 'R. Ailton Negrão Fazzio, 124', 'stop_lat': -23.578603, 'stop_lon': -46.5233, 'stop_location_type': 'Bus'}"
409066,"{'stop_name': 'Av. Itaquera, 89', 'stop_lat': -23.558077, 'stop_lon': -46.521137, 'stop_location_type': 'Bus'}"
409067,"{'stop_name': 'R. Pedro Rabelo, 209', 'stop_lat': -23.582085, 'stop_lon': -46.506931, 'stop_location_type': 'Bus'}"
409068,"{'stop_name': 'R. Nsa. Sra. Das Dores, 637', 'stop_lat': -23.571481, 'stop_lon': -46.531997, 'stop_location_type': 'Bus'}"
409069,"{'stop_name': 'R. Nsa. Sra. Das Dores, 630', 'stop_lat': -23.571516, 'stop_lon': -46.532002, 'stop_location_type': 'Bus'}"
409070,"{'stop_name': 'R. Amélia Vanso Magnoli, 310', 'stop_lat': -23.585432, 'stop_lon': -46.507579, 'stop_location_type': 'Bus'}"
409071,"{'stop_name': 'R. Rufino Fernandes Inivarri, 69', 'stop_lat': -23.587573, 'stop_lon': -46.506418, 'stop_location_type': 'Bus'}"
409075,"{'stop_name': 'Av. Rio Das Pedras, 1016', 'stop_lat': -23.564311, 'stop_lon': -46.513929, 'stop_location_type': 'Bus'}"
409076,"{'stop_name': 'R. Manuel Figueiredo, 344', 'stop_lat': -23.574506, 'stop_lon': -46.520772, 'stop_location_type': 'Bus'}"
409077,"{'stop_name': 'R. Nello Selmi Dei, 32', 'stop_lat': -23.58075, 'stop_lon': -46.50974, 'stop_location_type': 'Bus'}"
409079,"{'stop_name': 'R. Nello Selmi Dei, 20', 'stop_lat': -23.581594, 'stop_lon': -46.509708, 'stop_location_type': 'Bus'}"
409080,"{'stop_name': 'Av. Inconfidência Mineira, 375', 'stop_lat': -23.582101, 'stop_lon': -46.518811, 'stop_location_type': 'Bus'}"
409082,"{'stop_name': 'Av. Aguiar Da Beira, 299', 'stop_lat': -23.579311, 'stop_lon': -46.522561, 'stop_location_type': 'Bus'}"
409083,"{'stop_name': 'Av. Aguiar Da Beira, 378', 'stop_lat': -23.572699, 'stop_lon': -46.519975, 'stop_location_type': 'Bus'}"
409084,"{'stop_name': 'R. Nello Selmi Dei, 254', 'stop_lat': -23.582764, 'stop_lon': -46.509729, 'stop_location_type': 'Bus'}"
508317,"{'stop_name': 'R. Pe. Tomás De Vilanova, 229', 'stop_lat': -23.54711, 'stop_lon': -46.483431, 'stop_location_type': 'Bus'}"
508319,"{'stop_name': 'R. Pe. Tomás De Vilanova, 229', 'stop_lat': -23.547255, 'stop_lon': -46.483514, 'stop_location_type': 'Bus'}"
508327,"{'stop_name': 'R. Pe. Jerônimo Machado, 61', 'stop_lat': -23.543015, 'stop_lon': -46.481492, 'stop_location_type': 'Bus'}"
508334,"{'stop_name': 'R. Dr. Campos Moura, 95', 'stop_lat': -23.540384, 'stop_lon': -46.485367, 'stop_location_type': 'Bus'}"
508347,"{'stop_name': 'R. Peixoto Werneck, 440', 'stop_lat': -23.543354, 'stop_lon': -46.487651, 'stop_location_type': 'Bus'}"
508354,"{'stop_name': 'R. Saturnino De Souza, 525', 'stop_lat': -23.548236, 'stop_lon': -46.493769, 'stop_location_type': 'Bus'}"
508370,"{'stop_name': 'R. Maciel Monteiro, 807', 'stop_lat': -23.542369, 'stop_lon': -46.492533, 'stop_location_type': 'Bus'}"
508379,"{'stop_name': 'R. Maciel Monteiro, 151', 'stop_lat': -23.537249, 'stop_lon': -46.490359, 'stop_location_type': 'Bus'}"
508684,"{'stop_name': 'R. Sonho Gaúcho, 50', 'stop_lat': -23.52584, 'stop_lon': -46.480781, 'stop_location_type': 'Bus'}"
508687,"{'stop_name': 'R. Sonho Gaúcho, 502', 'stop_lat': -23.524382, 'stop_lon': -46.476618, 'stop_location_type': 'Bus'}"
508709,"{'stop_name': 'R. Sino Vitória, 45', 'stop_lat': -23.529354, 'stop_lon': -46.479919, 'stop_location_type': 'Bus'}"
508938,"{'stop_name': 'Av. Souza Bandeira, 200', 'stop_lat': -23.547967, 'stop_lon': -46.50179, 'stop_location_type': 'Bus'}"
508991,"{'stop_name': 'Av. Eng. João Baptista Aranha, 135', 'stop_lat': -23.550522, 'stop_lon': -46.493206, 'stop_location_type': 'Bus'}"
509010,"{'stop_name': 'Av. Cânio Lettiere, 0', 'stop_lat': -23.534727, 'stop_lon': -46.492775, 'stop_location_type': 'Bus'}"
509013,"{'stop_name': 'R. Pe. Gabriel De Campos, 49', 'stop_lat': -23.549836, 'stop_lon': -46.487287, 'stop_location_type': 'Bus'}"
509014,"{'stop_name': 'R. Pe. Gabriel De Campos, 71', 'stop_lat': -23.549641, 'stop_lon': -46.487087, 'stop_location_type': 'Bus'}"
509015,"{'stop_name': 'R. Juazeiro Do Norte, 313', 'stop_lat': -23.529268, 'stop_lon': -46.487692, 'stop_location_type': 'Bus'}"
509017,"{'stop_name': 'R. Iborepi, 111', 'stop_lat': -23.532782, 'stop_lon': -46.484453, 'stop_location_type': 'Bus'}"
509020,"{'stop_name': 'R. Juazeiro Do Norte, 298', 'stop_lat': -23.529547, 'stop_lon': -46.487538, 'stop_location_type': 'Bus'}"
509021,"{'stop_name': 'R. Juazeiro Do Norte, 610', 'stop_lat': -23.526775, 'stop_lon': -46.487821, 'stop_location_type': 'Bus'}"
509022,"{'stop_name': 'Av. Águia De Haia, 1815', 'stop_lat': -23.530005, 'stop_lon': -46.474051, 'stop_location_type': 'Bus'}"
509023,"{'stop_name': 'Av. Águia De Haia, 1637', 'stop_lat': -23.531595, 'stop_lon': -46.473721, 'stop_location_type': 'Bus'}"
509026,"{'stop_name': 'Terminal Metrô Artur Alvim', 'stop_lat': -23.540692, 'stop_lon': -46.482933, 'stop_location_type': 'Bus'}"
509028,"{'stop_name': 'R. Juciri, 130', 'stop_lat': -23.54132, 'stop_lon': -46.476053, 'stop_location_type': 'Bus'}"
509029,"{'stop_name': 'R. S. Vitório, 25', 'stop_lat': -23.544057, 'stop_lon': -46.495311, 'stop_location_type': 'Bus'}"
509030,"{'stop_name': 'R. S. Vitório, 697', 'stop_lat': -23.549165, 'stop_lon': -46.495993, 'stop_location_type': 'Bus'}"
509033,"{'stop_name': 'R. Dr. Xavier De Oliveira, 246', 'stop_lat': -23.549443, 'stop_lon': -46.49592, 'stop_location_type': 'Bus'}"
509035,"{'stop_name': 'Av. Águia De Haia, 1255', 'stop_lat': -23.534977, 'stop_lon': -46.473961, 'stop_location_type': 'Bus'}"
509036,"{'stop_name': 'R. Des. Rocha Portela, 62', 'stop_lat': -23.5374, 'stop_lon': -46.497012, 'stop_location_type': 'Bus'}"
509037,"{'stop_name': 'R. Des. Rocha Portela, 386', 'stop_lat': -23.538378, 'stop_lon': -46.493889, 'stop_location_type': 'Bus'}"
509038,"{'stop_name': 'R. Henrique Jacobs, 374', 'stop_lat': -23.538931, 'stop_lon': -46.491888, 'stop_location_type': 'Bus'}"
509039,"{'stop_name': 'R. Henrique Jacobs, 802', 'stop_lat': -23.542449, 'stop_lon': -46.493517, 'stop_location_type': 'Bus'}"
509043,"{'stop_name': 'Av. Calim Eid, 3200', 'stop_lat': -23.53094, 'stop_lon': -46.488255, 'stop_location_type': 'Bus'}"
509044,"{'stop_name': 'Av. Calim Eid, 3672', 'stop_lat': -23.536979, 'stop_lon': -46.48491, 'stop_location_type': 'Bus'}"
509045,"{'stop_name': 'Av. José Pinheiro Borges, 3', 'stop_lat': -23.541604, 'stop_lon': -46.481335, 'stop_location_type': 'Bus'}"
509046,"{'stop_name': 'R. Igaroi, 42', 'stop_lat': -23.531284, 'stop_lon': -46.4871, 'stop_location_type': 'Bus'}"
509050,"{'stop_name': 'R. Pontal, 209', 'stop_lat': -23.541476, 'stop_lon': -46.495076, 'stop_location_type': 'Bus'}"
509051,"{'stop_name': 'R. Maciel Monteiro, 152', 'stop_lat': -23.537089, 'stop_lon': -46.490447, 'stop_location_type': 'Bus'}"
509053,"{'stop_name': 'Av. Prof. Edgar Santos, 363', 'stop_lat': -23.548301, 'stop_lon': -46.498301, 'stop_location_type': 'Bus'}"
509058,"{'stop_name': 'R. Dr. Campos Moura, 311', 'stop_lat': -23.541972, 'stop_lon': -46.483879, 'stop_location_type': 'Bus'}"
509059,"{'stop_name': 'R. Dr. Campos Moura, 341', 'stop_lat': -23.54211, 'stop_lon': -46.483763, 'stop_location_type': 'Bus'}"
509060,"{'stop_name': 'Av. Prof. Edgar Santos, 27', 'stop_lat': -23.54735, 'stop_lon': -46.501417, 'stop_location_type': 'Bus'}"
509061,"{'stop_name': 'Av. Prof. Edgar Santos, 148', 'stop_lat': -23.547856, 'stop_lon': -46.500324, 'stop_location_type': 'Bus'}"
509062,"{'stop_name': 'Av. Prof. Edgar Santos, 703', 'stop_lat': -23.550351, 'stop_lon': -46.495579, 'stop_location_type': 'Bus'}"
509063,"{'stop_name': 'Av. Prof. Edgar Santos, 550', 'stop_lat': -23.549726, 'stop_lon': -46.496931, 'stop_location_type': 'Bus'}"
509064,"{'stop_name': 'Av. Prof. Edgar Santos, 906', 'stop_lat': -23.551575, 'stop_lon': -46.494245, 'stop_location_type': 'Bus'}"
509066,"{'stop_name': 'R. Dejanira, 118', 'stop_lat': -23.549461, 'stop_lon': -46.492072, 'stop_location_type': 'Bus'}"
509067,"{'stop_name': 'R. Gabriel Angler, 75', 'stop_lat': -23.549112, 'stop_lon': -46.490321, 'stop_location_type': 'Bus'}"
509069,"{'stop_name': 'R. Susana Dacre, 74', 'stop_lat': -23.547924, 'stop_lon': -46.490682, 'stop_location_type': 'Bus'}"
509070,"{'stop_name': 'R. Susana Dacre, 66', 'stop_lat': -23.547839, 'stop_lon': -46.49153, 'stop_location_type': 'Bus'}"
509071,"{'stop_name': 'R. Franca Alencar, 12', 'stop_lat': -23.547656, 'stop_lon': -46.491824, 'stop_location_type': 'Bus'}"
509072,"{'stop_name': 'R. Gabriel Angler, 75', 'stop_lat': -23.549047, 'stop_lon': -46.490234, 'stop_location_type': 'Bus'}"
509073,"{'stop_name': 'R. Des. Carneiro Ribeiro, 875', 'stop_lat': -23.5463, 'stop_lon': -46.490938, 'stop_location_type': 'Bus'}"
509074,"{'stop_name': 'Av. Antônio Estevão De Carvalho, 2711', 'stop_lat': -23.534126, 'stop_lon': -46.499783, 'stop_location_type': 'Bus'}"
509075,"{'stop_name': 'R. Adriano Rainaldi, 29', 'stop_lat': -23.548206, 'stop_lon': -46.490542, 'stop_location_type': 'Bus'}"
509076,"{'stop_name': 'R. Vidal Prader, 94', 'stop_lat': -23.548727, 'stop_lon': -46.490723, 'stop_location_type': 'Bus'}"
509077,"{'stop_name': 'Av. Hermilo Alves, 1105', 'stop_lat': -23.532626, 'stop_lon': -46.488098, 'stop_location_type': 'Bus'}"
509078,"{'stop_name': 'R. Dr. Campos Moura, 158', 'stop_lat': -23.54062, 'stop_lon': -46.485072, 'stop_location_type': 'Bus'}"
509079,"{'stop_name': 'R. Peixoto Werneck, 77', 'stop_lat': -23.540151, 'stop_lon': -46.486183, 'stop_location_type': 'Bus'}"
509082,"{'stop_name': 'R. Pierre Jannsen, 171', 'stop_lat': -23.529759, 'stop_lon': -46.476153, 'stop_location_type': 'Bus'}"
509083,"{'stop_name': 'Av. Frederick Hoffman, 126', 'stop_lat': -23.530103, 'stop_lon': -46.476875, 'stop_location_type': 'Bus'}"
509084,"{'stop_name': 'R. Dr. Luiz Aires, 1136', 'stop_lat': -23.535972, 'stop_lon': -46.491263, 'stop_location_type': 'Bus'}"
509085,"{'stop_name': 'R. Dr. Luiz Aires, 1261', 'stop_lat': -23.535774, 'stop_lon': -46.489881, 'stop_location_type': 'Bus'}"
509086,"{'stop_name': 'R. Dr. Luiz Aires, 4045', 'stop_lat': -23.543211, 'stop_lon': -46.469493, 'stop_location_type': 'Bus'}"
509088,"{'stop_name': 'R. Dr. Moacir Tavolaro, 1', 'stop_lat': -23.538641, 'stop_lon': -46.488111, 'stop_location_type': 'Bus'}"
509089,"{'stop_name': 'R. Henrique Jacobs, 600', 'stop_lat': -23.540766, 'stop_lon': -46.49274, 'stop_location_type': 'Bus'}"
509090,"{'stop_name': 'R. José Francisco Lopes, 383', 'stop_lat': -23.545748, 'stop_lon': -46.496924, 'stop_location_type': 'Bus'}"
509091,"{'stop_name': 'R. José Francisco Lopes, 199', 'stop_lat': -23.545319, 'stop_lon': -46.498335, 'stop_location_type': 'Bus'}"
509092,"{'stop_name': 'R. Dr. Nelson Madureira, 704', 'stop_lat': -23.546675, 'stop_lon': -46.499228, 'stop_location_type': 'Bus'}"
509093,"{'stop_name': 'R. Dr. Nelson Madureira, 877', 'stop_lat': -23.547658, 'stop_lon': -46.497852, 'stop_location_type': 'Bus'}"
509094,"{'stop_name': 'R. Tibaldo Pereira, 144', 'stop_lat': -23.547188, 'stop_lon': -46.4964, 'stop_location_type': 'Bus'}"
509095,"{'stop_name': 'Av. José Pinheiro Borges', 'stop_lat': -23.539219, 'stop_lon': -46.471451, 'stop_location_type': 'Bus'}"
509096,"{'stop_name': 'R. S. Vitório, 505', 'stop_lat': -23.547449, 'stop_lon': -46.495857, 'stop_location_type': 'Bus'}"
509098,"{'stop_name': 'R. S. Vitório, 520', 'stop_lat': -23.547713, 'stop_lon': -46.496034, 'stop_location_type': 'Bus'}"
509099,"{'stop_name': 'R. Dr. Luiz Aires, 3092', 'stop_lat': -23.54356, 'stop_lon': -46.475903, 'stop_location_type': 'Bus'}"
509102,"{'stop_name': 'R. Marciano Capella, 667', 'stop_lat': -23.533257, 'stop_lon': -46.490028, 'stop_location_type': 'Bus'}"
509110,"{'stop_name': 'Av. José Pinheiro Borges, 4', 'stop_lat': -23.53841, 'stop_lon': -46.424365, 'stop_location_type': 'Bus'}"
509111,"{'stop_name': 'Av. Esperantina, 1311', 'stop_lat': -23.535409, 'stop_lon': -46.475164, 'stop_location_type': 'Bus'}"
509112,"{'stop_name': 'Av. Esperantina, 1311', 'stop_lat': -23.535409, 'stop_lon': -46.475164, 'stop_location_type': 'Bus'}"
600487,"{'stop_name': 'R. Min. Godoy, 376', 'stop_lat': -23.532863, 'stop_lon': -46.669247, 'stop_location_type': 'Bus'}"
600539,"{'stop_name': 'R. Traipu, 19', 'stop_lat': -23.53247, 'stop_lon': -46.662127, 'stop_location_type': 'Bus'}"
610774,"{'stop_name': 'R. Margarida, 415', 'stop_lat': -23.529214, 'stop_lon': -46.66218, 'stop_location_type': 'Bus'}"
610820,"{'stop_name': 'Av. Antártica, 213', 'stop_lat': -23.522676, 'stop_lon': -46.66875, 'stop_location_type': 'Bus'}"
610821,"{'stop_name': 'Av. Lateral Do Viad. Antártica, 62', 'stop_lat': -23.522269, 'stop_lon': -46.668983, 'stop_location_type': 'Bus'}"
610833,"{'stop_name': 'Av. Antártica, 575', 'stop_lat': -23.528875, 'stop_lon': -46.67602, 'stop_location_type': 'Bus'}"
610869,"{'stop_name': 'Av. Nicolas Bôer, 510', 'stop_lat': -23.516262, 'stop_lon': -46.678889, 'stop_location_type': 'Bus'}"
614432,"{'stop_name': 'Baby Bariony C/B', 'stop_lat': -23.527608, 'stop_lon': -46.671511, 'stop_location_type': 'Bus'}"
614455,"{'stop_name': 'Pedro Corazza C/B', 'stop_lat': -23.515143, 'stop_lon': -46.689654, 'stop_location_type': 'Bus'}"
614508,"{'stop_name': 'Av. Pres. Castelo Branco, 1000', 'stop_lat': -23.526423, 'stop_lon': -46.599844, 'stop_location_type': 'Bus'}"
614533,"{'stop_name': 'R. Robert Bosch, 450', 'stop_lat': -23.522117, 'stop_lon': -46.671566, 'stop_location_type': 'Bus'}"
614534,"{'stop_name': 'R. Robert Bosch, 469', 'stop_lat': -23.521946, 'stop_lon': -46.671596, 'stop_location_type': 'Bus'}"
614535,"{'stop_name': 'Av. Antártica', 'stop_lat': -23.522506, 'stop_lon': -46.668948, 'stop_location_type': 'Bus'}"
614537,"{'stop_name': 'R. Prof. Wilfrides Alves De Lima', 'stop_lat': -23.52735, 'stop_lon': -46.666781, 'stop_location_type': 'Bus'}"
614539,"{'stop_name': 'Av. Nicolas Bôer', 'stop_lat': -23.519816, 'stop_lon': -46.679389, 'stop_location_type': 'Bus'}"
614542,"{'stop_name': 'Terminal Barra Funda Lado Norte Plat. A', 'stop_lat': -23.525149, 'stop_lon': -46.666532, 'stop_location_type': 'Bus'}"
614543,"{'stop_name': 'Terminal Barra Funda Lado Norte Plat. A', 'stop_lat': -23.525157, 'stop_lon': -46.666352, 'stop_location_type': 'Bus'}"
614544,"{'stop_name': 'Terminal Barra Funda Lado Norte Plat. A', 'stop_lat': -23.525172, 'stop_lon': -46.666195, 'stop_location_type': 'Bus'}"
614546,"{'stop_name': 'Terminal Barra Funda Lado Norte Plat. A', 'stop_lat': -23.525176, 'stop_lon': -46.666035, 'stop_location_type': 'Bus'}"
614547,"{'stop_name': 'Av. Antártica, 608', 'stop_lat': -23.528703, 'stop_lon': -46.676104, 'stop_location_type': 'Bus'}"
614548,"{'stop_name': 'Comendador Martinelli - C/B', 'stop_lat': -23.512135, 'stop_lon': -46.690321, 'stop_location_type': 'Bus'}"
614549,"{'stop_name': 'Comendador Martinelli - B/C', 'stop_lat': -23.512773, 'stop_lon': -46.690585, 'stop_location_type': 'Bus'}"
614550,"{'stop_name': 'Pedro Corazza - Plataforma 5', 'stop_lat': -23.514265, 'stop_lon': -46.690676, 'stop_location_type': 'Bus'}"
614552,"{'stop_name': 'Av. Nicolas Bôer, 510', 'stop_lat': -23.516248, 'stop_lon': -46.679261, 'stop_location_type': 'Bus'}"
614560,"{'stop_name': 'Parada Extra C/B', 'stop_lat': -23.506404, 'stop_lon': -46.689026, 'stop_location_type': 'Bus'}"
614563,"{'stop_name': 'Av. Mário De Andrade', 'stop_lat': -23.52661, 'stop_lon': -46.666127, 'stop_location_type': 'Bus'}"
614566,"{'stop_name': 'R. Dr. Bento Teobaldo Ferraz', 'stop_lat': -23.524505, 'stop_lon': -46.670378, 'stop_location_type': 'Bus'}"
614567,"{'stop_name': 'R. Dr. Edgard Theotonio Santana, 423', 'stop_lat': -23.515934, 'stop_lon': -46.676078, 'stop_location_type': 'Bus'}"
614568,"{'stop_name': 'Av. Mário De Andrade', 'stop_lat': -23.525749, 'stop_lon': -46.671321, 'stop_location_type': 'Bus'}"
614570,"{'stop_name': 'Ac. Via Lateral Vd. Pompeia', 'stop_lat': -23.522048, 'stop_lon': -46.679609, 'stop_location_type': 'Bus'}"
614571,"{'stop_name': 'R. Júlio Gonzalez, 132', 'stop_lat': -23.526144, 'stop_lon': -46.671425, 'stop_location_type': 'Bus'}"
614572,"{'stop_name': 'R. Tagipuru, 917', 'stop_lat': -23.527108, 'stop_lon': -46.669224, 'stop_location_type': 'Bus'}"
614573,"{'stop_name': 'Av. Mq. De São Vicente, 1771', 'stop_lat': -23.519327, 'stop_lon': -46.675348, 'stop_location_type': 'Bus'}"
614574,"{'stop_name': 'R. Gustav Willi Borghoff, 480', 'stop_lat': -23.524638, 'stop_lon': -46.67527, 'stop_location_type': 'Bus'}"
614578,"{'stop_name': 'Pça. Pascoal Martins, 54', 'stop_lat': -23.518844, 'stop_lon': -46.674723, 'stop_location_type': 'Bus'}"
614581,"{'stop_name': 'R. Pe. Antônio Tomás, 144', 'stop_lat': -23.527211, 'stop_lon': -46.677399, 'stop_location_type': 'Bus'}"
614583,"{'stop_name': 'Terminal Barra Funda Lado Sul Plat. B', 'stop_lat': -23.526276, 'stop_lon': -46.66727, 'stop_location_type': 'Bus'}"
614584,"{'stop_name': 'Parada 2 - Quirino Dos Santos - B/C', 'stop_lat': -23.522158, 'stop_lon': -46.663299, 'stop_location_type': 'Bus'}"
614586,"{'stop_name': 'R. Gustav Willi Borghoff, 480', 'stop_lat': -23.524509, 'stop_lon': -46.675117, 'stop_location_type': 'Bus'}"
614590,"{'stop_name': 'Ac. Via Lateral Vd. Pompeia, 150', 'stop_lat': -23.522776, 'stop_lon': -46.679312, 'stop_location_type': 'Bus'}"
706304,"{'stop_name': 'Av. Paulista, 900', 'stop_lat': -23.5659, 'stop_lon': -46.650929, 'stop_location_type': 'Bus'}"
706308,"{'stop_name': 'Parada Avenida Paulista', 'stop_lat': -23.566211, 'stop_lon': -46.648198, 'stop_location_type': 'Bus'}"
706309,"{'stop_name': 'Parada Cincinato Braga', 'stop_lat': -23.565941, 'stop_lon': -46.647922, 'stop_location_type': 'Bus'}"
706310,"{'stop_name': 'Parada Treze De Maio', 'stop_lat': -23.563945, 'stop_lon': -46.646421, 'stop_location_type': 'Bus'}"
706311,"{'stop_name': 'Parada Treze De Maio', 'stop_lat': -23.563731, 'stop_lon': -46.646118, 'stop_location_type': 'Bus'}"
706319,"{'stop_name': 'Parada Treze De Maio', 'stop_lat': -23.569805, 'stop_lon': -46.644035, 'stop_location_type': 'Bus'}"
706320,"{'stop_name': 'R. Treze De Maio, 1855', 'stop_lat': -23.569846, 'stop_lon': -46.6438, 'stop_location_type': 'Bus'}"
706322,"{'stop_name': 'Parada Treze De Maio', 'stop_lat': -23.566288, 'stop_lon': -46.644605, 'stop_location_type': 'Bus'}"
706325,"{'stop_name': 'Parada 14 Bis B/C', 'stop_lat': -23.555934, 'stop_lon': -46.650112, 'stop_location_type': 'Bus'}"
706334,"{'stop_name': 'Parada 14 Bis C/B', 'stop_lat': -23.555608, 'stop_lon': -46.649766, 'stop_location_type': 'Bus'}"
706357,"{'stop_name': 'R. Cincinato Braga, 144', 'stop_lat': -23.569313, 'stop_lon': -46.644804, 'stop_location_type': 'Bus'}"
706361,"{'stop_name': 'R. Rui Barbosa, 333', 'stop_lat': -23.558383, 'stop_lon': -46.645243, 'stop_location_type': 'Bus'}"
706367,"{'stop_name': 'R. Antônio Carlos, 196', 'stop_lat': -23.557171, 'stop_lon': -46.657021, 'stop_location_type': 'Bus'}"
706372,"{'stop_name': 'Pça. D. Orione', 'stop_lat': -23.560311, 'stop_lon': -46.645559, 'stop_location_type': 'Bus'}"
706376,"{'stop_name': 'Av. Brig. Luís Antônio, 1167', 'stop_lat': -23.559694, 'stop_lon': -46.642622, 'stop_location_type': 'Bus'}"
706377,"{'stop_name': 'Av. Brig. Luís Antônio, 931', 'stop_lat': -23.557922, 'stop_lon': -46.641096, 'stop_location_type': 'Bus'}"
809564,"{'stop_name': 'R. Pe. Adelino, 1119', 'stop_lat': -23.543841, 'stop_lon': -46.583066, 'stop_location_type': 'Bus'}"
809671,"{'stop_name': 'R. Serra Da Bocaina, 320', 'stop_lat': -23.546475, 'stop_lon': -46.588252, 'stop_location_type': 'Bus'}"
809675,"{'stop_name': 'Av. Álvaro Ramos, 779', 'stop_lat': -23.544156, 'stop_lon': -46.586279, 'stop_location_type': 'Bus'}"
810534,"{'stop_name': 'Av. Ariston De Azevedo, 75', 'stop_lat': -23.528195, 'stop_lon': -46.601933, 'stop_location_type': 'Bus'}"
810536,"{'stop_name': 'Pça. Gen. Humberto Souza Mello, 56', 'stop_lat': -23.530694, 'stop_lon': -46.602342, 'stop_location_type': 'Bus'}"
810550,"{'stop_name': 'R. Herval, 715', 'stop_lat': -23.540606, 'stop_lon': -46.588469, 'stop_location_type': 'Bus'}"
810556,"{'stop_name': 'R. Serra Da Bocaina, 126', 'stop_lat': -23.546963, 'stop_lon': -46.590586, 'stop_location_type': 'Bus'}"
810563,"{'stop_name': 'R. David Zeiger', 'stop_lat': -23.547253, 'stop_lon': -46.579971, 'stop_location_type': 'Bus'}"
810583,"{'stop_name': 'R. S. Leopoldo, 308', 'stop_lat': -23.540884, 'stop_lon': -46.599837, 'stop_location_type': 'Bus'}"
810586,"{'stop_name': 'R. Paulo Andrighetti, 55', 'stop_lat': -23.529035, 'stop_lon': -46.603469, 'stop_location_type': 'Bus'}"
810588,"{'stop_name': 'Pça. Gen. Humberto Souza Mello, 893', 'stop_lat': -23.53034, 'stop_lon': -46.603067, 'stop_location_type': 'Bus'}"
810590,"{'stop_name': 'Terminal Metrô Belém (sul) Pl. D', 'stop_lat': -23.543289, 'stop_lon': -46.589189, 'stop_location_type': 'Bus'}"
810591,"{'stop_name': 'R. Júlio Cesar Da Silva, 72', 'stop_lat': -23.538214, 'stop_lon': -46.605602, 'stop_location_type': 'Bus'}"
810592,"{'stop_name': 'Pça. Mj. Guilherme Rudge, 59', 'stop_lat': -23.537436, 'stop_lon': -46.588989, 'stop_location_type': 'Bus'}"
810593,"{'stop_name': 'R. Itaqueri, 1122', 'stop_lat': -23.556723, 'stop_lon': -46.588605, 'stop_location_type': 'Bus'}"
810601,"{'stop_name': 'R. Herval, 1011', 'stop_lat': -23.540132, 'stop_lon': -46.585778, 'stop_location_type': 'Bus'}"
810602,"{'stop_name': 'R. Sta. Rita, 56', 'stop_lat': -23.53337, 'stop_lon': -46.612293, 'stop_location_type': 'Bus'}"
810604,"{'stop_name': 'Av. Cdssa. Elisabeth De Robiano, 1256', 'stop_lat': -23.52732, 'stop_lon': -46.565489, 'stop_location_type': 'Bus'}"
810605,"{'stop_name': 'R. Behring, 236', 'stop_lat': -23.536282, 'stop_lon': -46.60572, 'stop_location_type': 'Bus'}"
810606,"{'stop_name': 'R. Pimenta Bueno, 70', 'stop_lat': -23.537352, 'stop_lon': -46.588048, 'stop_location_type': 'Bus'}"
810608,"{'stop_name': 'R. Cons. Cotegipe, 101', 'stop_lat': -23.538411, 'stop_lon': -46.592581, 'stop_location_type': 'Bus'}"
810610,"{'stop_name': 'R. Pe. Adelino, 273', 'stop_lat': -23.545368, 'stop_lon': -46.591179, 'stop_location_type': 'Bus'}"
810612,"{'stop_name': 'Av. Alcântara Machado, 4290', 'stop_lat': -23.542954, 'stop_lon': -46.584677, 'stop_location_type': 'Bus'}"
810613,"{'stop_name': 'R. Pe. Adelino, 855', 'stop_lat': -23.544356, 'stop_lon': -46.585917, 'stop_location_type': 'Bus'}"
810614,"{'stop_name': 'Av. Guilherme Cotching, 133', 'stop_lat': -23.529256, 'stop_lon': -46.598113, 'stop_location_type': 'Bus'}"
910689,"{'stop_name': 'R. Barra Do Tibagi, 1090', 'stop_lat': -23.525761, 'stop_lon': -46.647656, 'stop_location_type': 'Bus'}"
910768,"{'stop_name': 'R. Prates, 898', 'stop_lat': -23.526231, 'stop_lon': -46.634803, 'stop_location_type': 'Bus'}"
910776,"{'stop_name': 'Av. Do Estado, 5854', 'stop_lat': -23.558956, 'stop_lon': -46.615204, 'stop_location_type': 'Bus'}"
910777,"{'stop_name': 'Luz', 'stop_lat': -23.535297, 'stop_lon': -46.634703, 'stop_location_type': 'Rail'}"
910792,"{'stop_name': 'R. Guarani, 368', 'stop_lat': -23.527804, 'stop_lon': -46.637215, 'stop_location_type': 'Bus'}"
910794,"{'stop_name': 'R. Vítor Airosa, 131', 'stop_lat': -23.527741, 'stop_lon': -46.626775, 'stop_location_type': 'Bus'}"
910795,"{'stop_name': 'R. Guaporé, 385', 'stop_lat': -23.523561, 'stop_lon': -46.626543, 'stop_location_type': 'Bus'}"
910800,"{'stop_name': 'Parada Rudge C/B', 'stop_lat': -23.52418, 'stop_lon': -46.64986, 'stop_location_type': 'Bus'}"
910803,"{'stop_name': 'R. Neves De Carvalho, 780', 'stop_lat': -23.518982, 'stop_lon': -46.650258, 'stop_location_type': 'Bus'}"
910804,"{'stop_name': 'R. Guarani, 56', 'stop_lat': -23.528769, 'stop_lon': -46.634406, 'stop_location_type': 'Bus'}"
910808,"{'stop_name': 'R. Jorge Velho, 122', 'stop_lat': -23.527111, 'stop_lon': -46.632329, 'stop_location_type': 'Bus'}"
910809,"{'stop_name': 'R. Silva Pinto, 387', 'stop_lat': -23.52802, 'stop_lon': -46.638926, 'stop_location_type': 'Bus'}"
910810,"{'stop_name': 'R. Visc. De Taunay, 610', 'stop_lat': -23.52207, 'stop_lon': -46.649443, 'stop_location_type': 'Bus'}"
910811,"{'stop_name': 'R. Anhaia, 955', 'stop_lat': -23.522139, 'stop_lon': -46.646257, 'stop_location_type': 'Bus'}"
910813,"{'stop_name': 'Av. Santos Dumont, 1318', 'stop_lat': -23.516163, 'stop_lon': -46.629538, 'stop_location_type': 'Bus'}"
910816,"{'stop_name': 'R. Júlio Conceição, 569', 'stop_lat': -23.527608, 'stop_lon': -46.641574, 'stop_location_type': 'Bus'}"
910817,"{'stop_name': 'R. Barra Do Tibagi, 810', 'stop_lat': -23.524926, 'stop_lon': -46.645837, 'stop_location_type': 'Bus'}"
910818,"{'stop_name': 'R. Anhaia, 1321', 'stop_lat': -23.519261, 'stop_lon': -46.647887, 'stop_location_type': 'Bus'}"
910819,"{'stop_name': 'R. José Paulino, 880', 'stop_lat': -23.526766, 'stop_lon': -46.641281, 'stop_location_type': 'Bus'}"
910820,"{'stop_name': 'Pça. Da Luz', 'stop_lat': -23.534636, 'stop_lon': -46.635022, 'stop_location_type': 'Bus'}"
910821,"{'stop_name': 'R. Da Graça, 427', 'stop_lat': -23.527451, 'stop_lon': -46.639807, 'stop_location_type': 'Bus'}"
910822,"{'stop_name': 'Tea', 'stop_lat': -23.517704, 'stop_lon': -46.629774, 'stop_location_type': 'Bus'}"
1009884,"{'stop_name': 'Parada 1/2/3 - Concórdia', 'stop_lat': -23.542172, 'stop_lon': -46.615544, 'stop_location_type': 'Bus'}"
1009889,"{'stop_name': 'R. Visc. De Abaete, 79', 'stop_lat': -23.54061, 'stop_lon': -46.61461, 'stop_location_type': 'Bus'}"
1009966,"{'stop_name': 'Piratininga', 'stop_lat': -23.544882, 'stop_lon': -46.619576, 'stop_location_type': 'Bus'}"
1010053,"{'stop_name': 'Brás', 'stop_lat': -23.545582, 'stop_lon': -46.616314, 'stop_location_type': 'Rail'}"
1010054,"{'stop_name': 'Brás', 'stop_lat': -23.547751, 'stop_lon': -46.616127, 'stop_location_type': 'Metro'}"
1010076,"{'stop_name': 'Av. Alcântara Machado, 773', 'stop_lat': -23.552358, 'stop_lon': -46.617495, 'stop_location_type': 'Bus'}"
1010082,"{'stop_name': 'R. Da Figueira, 249', 'stop_lat': -23.547258, 'stop_lon': -46.626488, 'stop_location_type': 'Bus'}"
1010092,"{'stop_name': 'Parada Caetano Pinto', 'stop_lat': -23.546153, 'stop_lon': -46.622181, 'stop_location_type': 'Bus'}"
1010093,"{'stop_name': 'Parada Piratininga', 'stop_lat': -23.545098, 'stop_lon': -46.62006, 'stop_location_type': 'Bus'}"
1010097,"{'stop_name': 'R. Dr. Ricardo Gonçalves, 240', 'stop_lat': -23.538669, 'stop_lon': -46.613832, 'stop_location_type': 'Bus'}"
1010100,"{'stop_name': 'Gasômetro', 'stop_lat': -23.544272, 'stop_lon': -46.623178, 'stop_location_type': 'Bus'}"
1010101,"{'stop_name': 'Av. Do Estado', 'stop_lat': -23.540113, 'stop_lon': -46.627476, 'stop_location_type': 'Bus'}"
1010102,"{'stop_name': 'Av. Do Estado, 2269', 'stop_lat': -23.534749, 'stop_lon': -46.625052, 'stop_location_type': 'Bus'}"
1010103,"{'stop_name': 'R. Do Hipódromo, 39', 'stop_lat': -23.5409, 'stop_lon': -46.612637, 'stop_location_type': 'Bus'}"
1010105,"{'stop_name': 'R. João Teodoro, 808', 'stop_lat': -23.534377, 'stop_lon': -46.624791, 'stop_location_type': 'Bus'}"
1010107,"{'stop_name': 'Av. Alcântara Machado, 91', 'stop_lat': -23.551551, 'stop_lon': -46.624211, 'stop_location_type': 'Bus'}"
1113263,"{'stop_name': 'R. Inácio Xavier De Carvalho, 269', 'stop_lat': -23.47525, 'stop_lon': -46.677243, 'stop_location_type': 'Bus'}"
1113267,"{'stop_name': 'Av. Dep. Cantidio Sampaio, 140', 'stop_lat': -23.473512, 'stop_lon': -46.67108, 'stop_location_type': 'Bus'}"
1113437,"{'stop_name': 'Av. Inajar De Souza, 5476', 'stop_lat': -23.462746, 'stop_lon': -46.67282, 'stop_location_type': 'Bus'}"
1113554,"{'stop_name': 'R. Parapuã, 1096', 'stop_lat': -23.475064, 'stop_lon': -46.690254, 'stop_location_type': 'Bus'}"
1113914,"{'stop_name': 'R. Eduardo Costa, 190', 'stop_lat': -23.448298, 'stop_lon': -46.697022, 'stop_location_type': 'Bus'}"
1113915,"{'stop_name': 'R. Domingos Arevalo, 771', 'stop_lat': -23.447419, 'stop_lon': -46.696996, 'stop_location_type': 'Bus'}"
1113919,"{'stop_name': 'R. Feliciano Malábia, 50', 'stop_lat': -23.450811, 'stop_lon': -46.696982, 'stop_location_type': 'Bus'}"
1113942,"{'stop_name': 'Av. Dep. Cantidio Sampaio, 5647', 'stop_lat': -23.441784, 'stop_lon': -46.707442, 'stop_location_type': 'Bus'}"
1114016,"{'stop_name': 'Av. Elísio Teixeira Leite, 4526', 'stop_lat': -23.460815, 'stop_lon': -46.715267, 'stop_location_type': 'Bus'}"
1114034,"{'stop_name': 'Av. Manoel Bolivar, 313', 'stop_lat': -23.457648, 'stop_lon': -46.69971, 'stop_location_type': 'Bus'}"
1114044,"{'stop_name': 'R. Alfredo Lucio, 170', 'stop_lat': -23.458668, 'stop_lon': -46.695115, 'stop_location_type': 'Bus'}"
1114051,"{'stop_name': 'R. Do Outono, 706', 'stop_lat': -23.461325, 'stop_lon': -46.692919, 'stop_location_type': 'Bus'}"
1114053,"{'stop_name': 'R. Joaquim Ferreira Da Rocha, 1175', 'stop_lat': -23.464974, 'stop_lon': -46.694209, 'stop_location_type': 'Bus'}"
1114071,"{'stop_name': 'R. Joaquim Ferreira Da Rocha, 738', 'stop_lat': -23.467756, 'stop_lon': -46.690961, 'stop_location_type': 'Bus'}"
1114073,"{'stop_name': 'R. Joaquim Ferreira Da Rocha, 491', 'stop_lat': -23.468798, 'stop_lon': -46.689397, 'stop_location_type': 'Bus'}"
1114076,"{'stop_name': 'R. Rosalvo José Da Silva, 134', 'stop_lat': -23.456784, 'stop_lon': -46.702963, 'stop_location_type': 'Bus'}"
1114080,"{'stop_name': 'R. Aurélio Brasil Ribeiro, 271', 'stop_lat': -23.456978, 'stop_lon': -46.700826, 'stop_location_type': 'Bus'}"
1114085,"{'stop_name': 'R. Domingos Vega, 718', 'stop_lat': -23.46316, 'stop_lon': -46.701279, 'stop_location_type': 'Bus'}"
1114089,"{'stop_name': 'R. Rodolfo Pereira Lima, 156', 'stop_lat': -23.45825, 'stop_lon': -46.697494, 'stop_location_type': 'Bus'}"
1114115,"{'stop_name': 'Estr. Lázaro Amâncio De Barros, 309', 'stop_lat': -23.466635, 'stop_lon': -46.694673, 'stop_location_type': 'Bus'}"
1114173,"{'stop_name': 'R. Aparecida Do Taboado', 'stop_lat': -23.4619, 'stop_lon': -46.713199, 'stop_location_type': 'Bus'}"
1114189,"{'stop_name': 'R. Raimundo Carneiro, 194', 'stop_lat': -23.456102, 'stop_lon': -46.700521, 'stop_location_type': 'Bus'}"
1114190,"{'stop_name': 'R. Aurélio Brasil Ribeiro, 352', 'stop_lat': -23.456442, 'stop_lon': -46.702133, 'stop_location_type': 'Bus'}"
1114208,"{'stop_name': 'R. Rodolfo Pereira Lima, 521', 'stop_lat': -23.457514, 'stop_lon': -46.696333, 'stop_location_type': 'Bus'}"
1114239,"{'stop_name': 'R. Aurélio Brasil Ribeiro, 565', 'stop_lat': -23.459034, 'stop_lon': -46.701768, 'stop_location_type': 'Bus'}"
1114241,"{'stop_name': 'Av. Dep. Cantidio Sampaio, 4306', 'stop_lat': -23.452432, 'stop_lon': -46.699888, 'stop_location_type': 'Bus'}"
1114244,"{'stop_name': 'R. Manoel Nascimento Pinto, 65', 'stop_lat': -23.462127, 'stop_lon': -46.688563, 'stop_location_type': 'Bus'}"
1114247,"{'stop_name': 'Av. Dep. Cantidio Sampaio, 1111', 'stop_lat': -23.467738, 'stop_lon': -46.677927, 'stop_location_type': 'Bus'}"
1114248,"{'stop_name': 'R. Jorge Pires Ramalho, 345', 'stop_lat': -23.46131, 'stop_lon': -46.698786, 'stop_location_type': 'Bus'}"
1114249,"{'stop_name': 'R. João Pinto De Oliveira, 156', 'stop_lat': -23.461631, 'stop_lon': -46.690894, 'stop_location_type': 'Bus'}"
1114252,"{'stop_name': 'R. Carlos Marighella, 115', 'stop_lat': -23.462613, 'stop_lon': -46.681533, 'stop_location_type': 'Bus'}"
1114253,"{'stop_name': 'R. Henry Charles Potel, 714', 'stop_lat': -23.471484, 'stop_lon': -46.67769, 'stop_location_type': 'Bus'}"
1114254,"{'stop_name': 'R. Rosalvo José Da Silva, 137', 'stop_lat': -23.456957, 'stop_lon': -46.702888, 'stop_location_type': 'Bus'}"
1114255,"{'stop_name': 'R. Braço Do Norte, 128', 'stop_lat': -23.460761, 'stop_lon': -46.709564, 'stop_location_type': 'Bus'}"
1114256,"{'stop_name': 'R. Flores De Goiás, 145', 'stop_lat': -23.458216, 'stop_lon': -46.707932, 'stop_location_type': 'Bus'}"
1114257,"{'stop_name': 'R. Lagoa Da Serra, 90', 'stop_lat': -23.458966, 'stop_lon': -46.709415, 'stop_location_type': 'Bus'}"
1114258,"{'stop_name': ""R. Sítio D'abadia, 160"", 'stop_lat': -23.459512, 'stop_lon': -46.709792, 'stop_location_type': 'Bus'}"
1114259,"{'stop_name': ""R. Sítio D'abadia, 78"", 'stop_lat': -23.460389, 'stop_lon': -46.708628, 'stop_location_type': 'Bus'}"
1114260,"{'stop_name': 'R. Aparecida Do Taboado, 297', 'stop_lat': -23.461272, 'stop_lon': -46.711172, 'stop_location_type': 'Bus'}"
1114261,"{'stop_name': 'R. Alto Tocantins, 133', 'stop_lat': -23.460789, 'stop_lon': -46.710816, 'stop_location_type': 'Bus'}"
1114262,"{'stop_name': 'R. Pe. Achilles Silvestre, 14', 'stop_lat': -23.460799, 'stop_lon': -46.712544, 'stop_location_type': 'Bus'}"
1114263,"{'stop_name': 'Av. Guilherme De Almeida, 258', 'stop_lat': -23.467164, 'stop_lon': -46.681042, 'stop_location_type': 'Bus'}"
1114265,"{'stop_name': 'R. Henry Charles Potel, 859', 'stop_lat': -23.470202, 'stop_lon': -46.677192, 'stop_location_type': 'Bus'}"
1114266,"{'stop_name': 'Av. Dep. Cantidio Sampaio, 789', 'stop_lat': -23.47051, 'stop_lon': -46.67635, 'stop_location_type': 'Bus'}"
1114267,"{'stop_name': 'R. Ilha De Itaparica', 'stop_lat': -23.453188, 'stop_lon': -46.707211, 'stop_location_type': 'Bus'}"
1114269,"{'stop_name': 'R. Talha Mar, 11', 'stop_lat': -23.45284, 'stop_lon': -46.699412, 'stop_location_type': 'Bus'}"
1114270,"{'stop_name': 'R. Cirilo Correia, 36', 'stop_lat': -23.44667, 'stop_lon': -46.699579, 'stop_location_type': 'Bus'}"
1114271,"{'stop_name': 'R. Fortunato Devoto, 41', 'stop_lat': -23.449545, 'stop_lon': -46.696064, 'stop_location_type': 'Bus'}"
1114273,"{'stop_name': 'R. Itaipava, 1', 'stop_lat': -23.464761, 'stop_lon': -46.694758, 'stop_location_type': 'Bus'}"
1114274,"{'stop_name': 'R. Benedito Egídio Barbosa, 45', 'stop_lat': -23.459977, 'stop_lon': -46.698054, 'stop_location_type': 'Bus'}"
1114275,"{'stop_name': 'R. Pajuçara, 161', 'stop_lat': -23.468041, 'stop_lon': -46.683132, 'stop_location_type': 'Bus'}"
1114276,"{'stop_name': 'R. Paramirim, 1116', 'stop_lat': -23.466262, 'stop_lon': -46.689342, 'stop_location_type': 'Bus'}"
1114277,"{'stop_name': 'R. Rodolfo Pereira Lima, 215', 'stop_lat': -23.458033, 'stop_lon': -46.697546, 'stop_location_type': 'Bus'}"
1114278,"{'stop_name': 'R. Paulo Limoeiro, 8', 'stop_lat': -23.457423, 'stop_lon': -46.696345, 'stop_location_type': 'Bus'}"
1114279,"{'stop_name': 'R. Luís José Junqueira Freire', 'stop_lat': -23.472566, 'stop_lon': -46.683246, 'stop_location_type': 'Bus'}"
1114283,"{'stop_name': 'R. Manoel Aquilino Dos Santos, 1000', 'stop_lat': -23.455884, 'stop_lon': -46.678386, 'stop_location_type': 'Bus'}"
1114285,"{'stop_name': 'R. Classicismo', 'stop_lat': -23.477905, 'stop_lon': -46.685878, 'stop_location_type': 'Bus'}"
1114286,"{'stop_name': 'R. Rosa Alboni, 57', 'stop_lat': -23.45676, 'stop_lon': -46.684917, 'stop_location_type': 'Bus'}"
1114287,"{'stop_name': 'Av. Dep. Cantidio Sampaio, 140', 'stop_lat': -23.473473, 'stop_lon': -46.67113, 'stop_location_type': 'Bus'}"
1114288,"{'stop_name': 'R. Rosa Alboni, 51', 'stop_lat': -23.455741, 'stop_lon': -46.68347, 'stop_location_type': 'Bus'}"
1114289,"{'stop_name': 'Estr. Lázaro Amâncio De Barros, 272', 'stop_lat': -23.466743, 'stop_lon': -46.694662, 'stop_location_type': 'Bus'}"
1114296,"{'stop_name': 'R. Emílio Castro, 423', 'stop_lat': -23.448241, 'stop_lon': -46.699265, 'stop_location_type': 'Bus'}"
1114297,"{'stop_name': 'R. Emílio Castro, 422', 'stop_lat': -23.448284, 'stop_lon': -46.699173, 'stop_location_type': 'Bus'}"
1114298,"{'stop_name': 'R. Emílio Castro, 39', 'stop_lat': -23.450413, 'stop_lon': -46.697844, 'stop_location_type': 'Bus'}"
1114299,"{'stop_name': 'R. Emílio Castro, 48', 'stop_lat': -23.450362, 'stop_lon': -46.697927, 'stop_location_type': 'Bus'}"
1114300,"{'stop_name': 'R. Daniel Cerri, 304', 'stop_lat': -23.447262, 'stop_lon': -46.698691, 'stop_location_type': 'Bus'}"
1114301,"{'stop_name': 'R. Emílio Castro, 307', 'stop_lat': -23.449186, 'stop_lon': -46.699261, 'stop_location_type': 'Bus'}"
1114303,"{'stop_name': 'R. Domingos Vega, 88', 'stop_lat': -23.467654, 'stop_lon': -46.697961, 'stop_location_type': 'Bus'}"
1114304,"{'stop_name': 'R. Aparecida Do Taboado, 1096', 'stop_lat': -23.457405, 'stop_lon': -46.705718, 'stop_location_type': 'Bus'}"
1114305,"{'stop_name': 'R. Aparecida Do Taboado, 1121', 'stop_lat': -23.457606, 'stop_lon': -46.705847, 'stop_location_type': 'Bus'}"
1114306,"{'stop_name': 'Estr. Da Cachoeira, 500', 'stop_lat': -23.455771, 'stop_lon': -46.706198, 'stop_location_type': 'Bus'}"
1114308,"{'stop_name': 'Estr. Da Cachoeira, 131', 'stop_lat': -23.457012, 'stop_lon': -46.705823, 'stop_location_type': 'Bus'}"
1114309,"{'stop_name': 'Estr. Da Cachoeira, 79', 'stop_lat': -23.456675, 'stop_lon': -46.706011, 'stop_location_type': 'Bus'}"
1114310,"{'stop_name': 'R. Br. De Santo Ângelo, 38', 'stop_lat': -23.475037, 'stop_lon': -46.689849, 'stop_location_type': 'Bus'}"
1114311,"{'stop_name': 'R. Br. De Santo Ângelo, 55', 'stop_lat': -23.474942, 'stop_lon': -46.689991, 'stop_location_type': 'Bus'}"
1114312,"{'stop_name': 'R. José Antônio Do Nascimento, 9', 'stop_lat': -23.459001, 'stop_lon': -46.678834, 'stop_location_type': 'Bus'}"
1114313,"{'stop_name': 'R. Agenor Alves Meira, 320', 'stop_lat': -23.459005, 'stop_lon': -46.678041, 'stop_location_type': 'Bus'}"
1114314,"{'stop_name': 'R. Agenor Alves Meira, 598', 'stop_lat': -23.457912, 'stop_lon': -46.680167, 'stop_location_type': 'Bus'}"
1114315,"{'stop_name': 'R. Parapuã, 1135', 'stop_lat': -23.474838, 'stop_lon': -46.690242, 'stop_location_type': 'Bus'}"
1114318,"{'stop_name': 'R. Nícia Coutinho Patrício, 490', 'stop_lat': -23.462998, 'stop_lon': -46.684952, 'stop_location_type': 'Bus'}"
1114319,"{'stop_name': 'R. Nícia Coutinho Patrício, 515', 'stop_lat': -23.462989, 'stop_lon': -46.685015, 'stop_location_type': 'Bus'}"
1114320,"{'stop_name': 'R. Nícia Coutinho Patrício, 89', 'stop_lat': -23.464975, 'stop_lon': -46.683523, 'stop_location_type': 'Bus'}"
1114322,"{'stop_name': 'Av. José Da Natividade Saldanha, 108', 'stop_lat': -23.47349, 'stop_lon': -46.684195, 'stop_location_type': 'Bus'}"
1114323,"{'stop_name': 'R. Nortelândia, 204', 'stop_lat': -23.452819, 'stop_lon': -46.687419, 'stop_location_type': 'Bus'}"
1114324,"{'stop_name': 'R. Monte Alegre Do Sul, 1216', 'stop_lat': -23.439025, 'stop_lon': -46.708562, 'stop_location_type': 'Bus'}"
1114325,"{'stop_name': 'R. Monte Alegre Do Sul, 1144', 'stop_lat': -23.439352, 'stop_lon': -46.709624, 'stop_location_type': 'Bus'}"
1114326,"{'stop_name': 'R. Braço Do Norte, 50', 'stop_lat': -23.461504, 'stop_lon': -46.708422, 'stop_location_type': 'Bus'}"
1114327,"{'stop_name': 'R. Feliciano Malábia, 287', 'stop_lat': -23.451353, 'stop_lon': -46.695853, 'stop_location_type': 'Bus'}"
1114328,"{'stop_name': 'R. Feliciano Malábia, 304', 'stop_lat': -23.451403, 'stop_lon': -46.695976, 'stop_location_type': 'Bus'}"
1114331,"{'stop_name': 'R. Geraldo Marino, 98', 'stop_lat': -23.453644, 'stop_lon': -46.692462, 'stop_location_type': 'Bus'}"
1114332,"{'stop_name': 'R. Henriqueta Pantaleão, 59', 'stop_lat': -23.453605, 'stop_lon': -46.694917, 'stop_location_type': 'Bus'}"
1114333,"{'stop_name': 'R. Antônio Rocha Mattos Filho, 18', 'stop_lat': -23.452288, 'stop_lon': -46.694455, 'stop_location_type': 'Bus'}"
1114334,"{'stop_name': 'Av. Dep. Cantidio Sampaio, 3433', 'stop_lat': -23.455741, 'stop_lon': -46.692926, 'stop_location_type': 'Bus'}"
1114335,"{'stop_name': 'R. A', 'stop_lat': -23.451507, 'stop_lon': -46.67678, 'stop_location_type': 'Bus'}"
1114336,"{'stop_name': 'R. A', 'stop_lat': -23.45137, 'stop_lon': -46.677034, 'stop_location_type': 'Bus'}"
1114337,"{'stop_name': 'R. Firminópolis, 646', 'stop_lat': -23.450486, 'stop_lon': -46.687552, 'stop_location_type': 'Bus'}"
1114339,"{'stop_name': 'R. Emílio Castro, 541', 'stop_lat': -23.447268, 'stop_lon': -46.699146, 'stop_location_type': 'Bus'}"
1114340,"{'stop_name': 'Av. Dep. Cantidio Sampaio, 4354', 'stop_lat': -23.451901, 'stop_lon': -46.700008, 'stop_location_type': 'Bus'}"
1114341,"{'stop_name': 'R. Itatiba Do Sul, 474', 'stop_lat': -23.451234, 'stop_lon': -46.686916, 'stop_location_type': 'Bus'}"
1114343,"{'stop_name': 'R. Virajubá, 163', 'stop_lat': -23.467443, 'stop_lon': -46.689957, 'stop_location_type': 'Bus'}"
1114344,"{'stop_name': 'R. Bernardo De Vera, 11', 'stop_lat': -23.455988, 'stop_lon': -46.681801, 'stop_location_type': 'Bus'}"
1114346,"{'stop_name': 'R. Rendeira, 5', 'stop_lat': -23.452109, 'stop_lon': -46.68573, 'stop_location_type': 'Bus'}"
1114349,"{'stop_name': 'Av. Dep. Cantidio Sampaio, 4595', 'stop_lat': -23.446137, 'stop_lon': -46.704822, 'stop_location_type': 'Bus'}"
1114355,"{'stop_name': 'R. Frederico Lacroze, 198', 'stop_lat': -23.449597, 'stop_lon': -46.696938, 'stop_location_type': 'Bus'}"
1114358,"{'stop_name': 'R. Nícia Coutinho Patrício', 'stop_lat': -23.466199, 'stop_lon': -46.68264, 'stop_location_type': 'Bus'}"
1114359,"{'stop_name': 'R. Daniel Cerri, 999', 'stop_lat': -23.446214, 'stop_lon': -46.69209, 'stop_location_type': 'Bus'}"
1114360,"{'stop_name': 'R. Do Farol, 447', 'stop_lat': -23.466348, 'stop_lon': -46.690781, 'stop_location_type': 'Bus'}"
1114361,"{'stop_name': 'Av. Dep. Cantidio Sampaio, 2775', 'stop_lat': -23.459585, 'stop_lon': -46.688285, 'stop_location_type': 'Bus'}"
1114362,"{'stop_name': 'Av. Dep. Cantidio Sampaio, 2751', 'stop_lat': -23.459422, 'stop_lon': -46.688163, 'stop_location_type': 'Bus'}"
1114363,"{'stop_name': 'R. Nícia Coutinho Patrício, 305', 'stop_lat': -23.464694, 'stop_lon': -46.683839, 'stop_location_type': 'Bus'}"
1114364,"{'stop_name': 'R. Daniel Cerri, 1016', 'stop_lat': -23.446161, 'stop_lon': -46.691595, 'stop_location_type': 'Bus'}"
1114365,"{'stop_name': 'R. Pe. Manoel Honorato, 280', 'stop_lat': -23.463692, 'stop_lon': -46.683568, 'stop_location_type': 'Bus'}"
1114366,"{'stop_name': 'R. Pe. Manoel Honorato, 337', 'stop_lat': -23.463307, 'stop_lon': -46.684049, 'stop_location_type': 'Bus'}"
1114367,"{'stop_name': 'Av. Gen. Penha Brasil, 2031', 'stop_lat': -23.457755, 'stop_lon': -46.675901, 'stop_location_type': 'Bus'}"
1114368,"{'stop_name': 'R. Rodolfo Pereira Lima, 7', 'stop_lat': -23.459879, 'stop_lon': -46.697738, 'stop_location_type': 'Bus'}"
1114369,"{'stop_name': 'R. Rodolfo Pereira Lima, 2', 'stop_lat': -23.459874, 'stop_lon': -46.697712, 'stop_location_type': 'Bus'}"
1114372,"{'stop_name': 'Estr. Lázaro Amâncio De Barros, 1298', 'stop_lat': -23.459203, 'stop_lon': -46.698779, 'stop_location_type': 'Bus'}"
1114373,"{'stop_name': 'Estr. Lázaro Amâncio De Barros, 1312', 'stop_lat': -23.459057, 'stop_lon': -46.698772, 'stop_location_type': 'Bus'}"
1114375,"{'stop_name': 'R. Grumixa, 4391', 'stop_lat': -23.45159, 'stop_lon': -46.699927, 'stop_location_type': 'Bus'}"
1114376,"{'stop_name': 'R. Emílio Castro, 320', 'stop_lat': -23.449155, 'stop_lon': -46.699059, 'stop_location_type': 'Bus'}"
1114377,"{'stop_name': 'Av. Dep. Cantidio Sampaio, 6095', 'stop_lat': -23.440052, 'stop_lon': -46.708384, 'stop_location_type': 'Bus'}"
1114379,"{'stop_name': 'R. Manoel Aquilino Dos Santos, 687', 'stop_lat': -23.455977, 'stop_lon': -46.68168, 'stop_location_type': 'Bus'}"
1114381,"{'stop_name': 'Av. João Paulo Primeiro', 'stop_lat': -23.492148, 'stop_lon': -46.690778, 'stop_location_type': 'Bus'}"
1206709,"{'stop_name': 'Parada Armando Fairbanks', 'stop_lat': -23.572107, 'stop_lon': -46.705635, 'stop_location_type': 'Bus'}"
1206717,"{'stop_name': 'Parada Caxingui', 'stop_lat': -23.569896, 'stop_lon': -46.713117, 'stop_location_type': 'Bus'}"
1206720,"{'stop_name': 'Parada Afonso Vaz', 'stop_lat': -23.569701, 'stop_lon': -46.716033, 'stop_location_type': 'Bus'}"
1206721,"{'stop_name': 'Av. Corifeu De Azevedo Marques, 291', 'stop_lat': -23.570458, 'stop_lon': -46.717932, 'stop_location_type': 'Bus'}"
1206722,"{'stop_name': 'Rod. Raposo Tavares, 181', 'stop_lat': -23.574716, 'stop_lon': -46.716748, 'stop_location_type': 'Bus'}"
1206730,"{'stop_name': 'Av. Caxingui, 626', 'stop_lat': -23.574317, 'stop_lon': -46.712292, 'stop_location_type': 'Bus'}"
1206901,"{'stop_name': 'R. Martinho Claro, 730', 'stop_lat': -23.576953, 'stop_lon': -46.723657, 'stop_location_type': 'Bus'}"
1206902,"{'stop_name': 'R. Hugo Carotini, 281', 'stop_lat': -23.577453, 'stop_lon': -46.722506, 'stop_location_type': 'Bus'}"
1206904,"{'stop_name': 'R. Martinho Claro, 450', 'stop_lat': -23.576151, 'stop_lon': -46.721709, 'stop_location_type': 'Bus'}"
1206908,"{'stop_name': 'R. Domingos Barbieri, 193', 'stop_lat': -23.578374, 'stop_lon': -46.720609, 'stop_location_type': 'Bus'}"
1206909,"{'stop_name': 'R. Domingos Barbieri, 150', 'stop_lat': -23.578598, 'stop_lon': -46.720483, 'stop_location_type': 'Bus'}"
1206916,"{'stop_name': 'Av. Eliseu De Almeida, 1630', 'stop_lat': -23.584326, 'stop_lon': -46.727924, 'stop_location_type': 'Bus'}"
1206957,"{'stop_name': 'Ac. Acesso, 628', 'stop_lat': -23.584011, 'stop_lon': -46.736703, 'stop_location_type': 'Bus'}"
1206959,"{'stop_name': 'R. Ari Aps, 80', 'stop_lat': -23.584908, 'stop_lon': -46.739914, 'stop_location_type': 'Bus'}"
1207005,"{'stop_name': 'Av. Eng. Heitor Antônio Eiras Garcia, 363', 'stop_lat': -23.574858, 'stop_lon': -46.739511, 'stop_location_type': 'Bus'}"
1207013,"{'stop_name': 'Parada Cel. Camisao', 'stop_lat': -23.573599, 'stop_lon': -46.731689, 'stop_location_type': 'Bus'}"
1207019,"{'stop_name': 'Parada Pereira Do Lago', 'stop_lat': -23.574327, 'stop_lon': -46.730426, 'stop_location_type': 'Bus'}"
1207025,"{'stop_name': 'Av. Corifeu De Azevedo Marques, 1495', 'stop_lat': -23.574652, 'stop_lon': -46.727802, 'stop_location_type': 'Bus'}"
1207028,"{'stop_name': 'Parada Santanesia', 'stop_lat': -23.572401, 'stop_lon': -46.722469, 'stop_location_type': 'Bus'}"
1207029,"{'stop_name': 'Av. Corifeu De Azevedo Marques, 1117', 'stop_lat': -23.57347, 'stop_lon': -46.725138, 'stop_location_type': 'Bus'}"
1207032,"{'stop_name': 'Cultura Japonesa', 'stop_lat': -23.562835, 'stop_lon': -46.719542, 'stop_location_type': 'Bus'}"
1207041,"{'stop_name': 'Biociências I', 'stop_lat': -23.566507, 'stop_lon': -46.73041, 'stop_location_type': 'Bus'}"
1207042,"{'stop_name': 'Biociências II', 'stop_lat': -23.566309, 'stop_lon': -46.730232, 'stop_location_type': 'Bus'}"
1207345,"{'stop_name': 'Av. Eng. Heitor Antônio Eiras Garcia, 2384', 'stop_lat': -23.58457, 'stop_lon': -46.753054, 'stop_location_type': 'Bus'}"
1211268,"{'stop_name': 'Arquitetura Urbanismo Design I', 'stop_lat': -23.560674, 'stop_lon': -46.730883, 'stop_location_type': 'Bus'}"
1211269,"{'stop_name': 'Oceanográfico', 'stop_lat': -23.560829, 'stop_lon': -46.730869, 'stop_location_type': 'Bus'}"
1211339,"{'stop_name': 'Butantã', 'stop_lat': -23.571874, 'stop_lon': -46.708048, 'stop_location_type': 'Metro'}"
1211342,"{'stop_name': 'R. Ari Dos Santos, 37', 'stop_lat': -23.584417, 'stop_lon': -46.73975, 'stop_location_type': 'Bus'}"
1211348,"{'stop_name': 'Av. Eliseu De Almeida, 141', 'stop_lat': -23.57616, 'stop_lon': -46.712983, 'stop_location_type': 'Bus'}"
1211349,"{'stop_name': 'Av. Valdemar Ferreira, 112', 'stop_lat': -23.571687, 'stop_lon': -46.704831, 'stop_location_type': 'Bus'}"
1211351,"{'stop_name': 'Av. Dr. Vital Brasil, 334', 'stop_lat': -23.571534, 'stop_lon': -46.707432, 'stop_location_type': 'Bus'}"
1211359,"{'stop_name': 'Terminal Metrô Butantã', 'stop_lat': -23.571891, 'stop_lon': -46.708796, 'stop_location_type': 'Bus'}"
1211361,"{'stop_name': 'R. Mmdc Ref.: Terminal Butantã', 'stop_lat': -23.572151, 'stop_lon': -46.709027, 'stop_location_type': 'Bus'}"
1211364,"{'stop_name': 'Av. Dr. Vital Brasil, 569', 'stop_lat': -23.570983, 'stop_lon': -46.70966, 'stop_location_type': 'Bus'}"
1211365,"{'stop_name': 'R. Mmdc, 380', 'stop_lat': -23.572057, 'stop_lon': -46.709319, 'stop_location_type': 'Bus'}"
1211366,"{'stop_name': 'Av. Valdemar Ferreira, 315', 'stop_lat': -23.570283, 'stop_lon': -46.7061, 'stop_location_type': 'Bus'}"
1211369,"{'stop_name': 'R. Cabral De Menezes, 20', 'stop_lat': -23.576433, 'stop_lon': -46.733395, 'stop_location_type': 'Bus'}"
1211370,"{'stop_name': 'R. Mmdc, 364 Ref.: Lateral Terminal Butantã', 'stop_lat': -23.572251, 'stop_lon': -46.708867, 'stop_location_type': 'Bus'}"
1211371,"{'stop_name': 'Av. Corifeu De Azevedo Marques, 547', 'stop_lat': -23.571314, 'stop_lon': -46.720165, 'stop_location_type': 'Bus'}"
1211372,"{'stop_name': 'R. Ari Aps, 368', 'stop_lat': -23.58488, 'stop_lon': -46.742855, 'stop_location_type': 'Bus'}"
1211373,"{'stop_name': 'Terminal Metrô Butantã', 'stop_lat': -23.571884, 'stop_lon': -46.708304, 'stop_location_type': 'Bus'}"
1211376,"{'stop_name': 'Terminal USP (cidade Universitária)', 'stop_lat': -23.552258, 'stop_lon': -46.732017, 'stop_location_type': 'Bus'}"
1211380,"{'stop_name': 'R. Alvarenga, 1099', 'stop_lat': -23.572409, 'stop_lon': -46.711457, 'stop_location_type': 'Bus'}"
1211381,"{'stop_name': 'Parada Exclusiva', 'stop_lat': -23.571255, 'stop_lon': -46.709227, 'stop_location_type': 'Bus'}"
1211391,"{'stop_name': 'Terminal Metrô Butantã', 'stop_lat': -23.571713, 'stop_lon': -46.709314, 'stop_location_type': 'Bus'}"
1211392,"{'stop_name': 'R. Pirajussara, 546', 'stop_lat': -23.5721, 'stop_lon': -46.708089, 'stop_location_type': 'Bus'}"
1211395,"{'stop_name': 'Educação Física I', 'stop_lat': -23.564346, 'stop_lon': -46.713094, 'stop_location_type': 'Bus'}"
1211396,"{'stop_name': 'Cptm Cidade Universitária I', 'stop_lat': -23.561744, 'stop_lon': -46.713219, 'stop_location_type': 'Bus'}"
1211397,"{'stop_name': 'Cptm Cidade Universitária II', 'stop_lat': -23.561317, 'stop_lon': -46.712868, 'stop_location_type': 'Bus'}"
1211398,"{'stop_name': 'CrUSP I', 'stop_lat': -23.557467, 'stop_lon': -46.719787, 'stop_location_type': 'Bus'}"
1211399,"{'stop_name': 'Raia Olímpica', 'stop_lat': -23.556683, 'stop_lon': -46.720517, 'stop_location_type': 'Bus'}"
1211401,"{'stop_name': 'São Paulo - Morumbi', 'stop_lat': -23.586132, 'stop_lon': -46.723471, 'stop_location_type': 'Metro'}"
1211402,"{'stop_name': 'Terminal Morumbi', 'stop_lat': -23.58572, 'stop_lon': -46.724003, 'stop_location_type': 'Bus'}"
1211404,"{'stop_name': 'Terminal Morumbi', 'stop_lat': -23.585784, 'stop_lon': -46.72397, 'stop_location_type': 'Bus'}"
1211408,"{'stop_name': 'Terminal Morumbi', 'stop_lat': -23.58562, 'stop_lon': -46.724134, 'stop_location_type': 'Bus'}"
1211411,"{'stop_name': 'R. Pereira Do Lago, 108', 'stop_lat': -23.575855, 'stop_lon': -46.7303, 'stop_location_type': 'Bus'}"
1211412,"{'stop_name': 'R. Prof. Orlando Marques Paiva', 'stop_lat': -23.567996, 'stop_lon': -46.740378, 'stop_location_type': 'Bus'}"
1211417,"{'stop_name': 'R. Ari Aps, 582', 'stop_lat': -23.584817, 'stop_lon': -46.745645, 'stop_location_type': 'Bus'}"
1211418,"{'stop_name': 'Av. Afrânio Peixoto, 424', 'stop_lat': -23.567229, 'stop_lon': -46.70888, 'stop_location_type': 'Bus'}"
1211419,"{'stop_name': 'Pça. Vicente Rodrigues', 'stop_lat': -23.568559, 'stop_lon': -46.708164, 'stop_location_type': 'Bus'}"
1211421,"{'stop_name': 'Av. Afrânio Peixoto, 401', 'stop_lat': -23.566916, 'stop_lon': -46.708737, 'stop_location_type': 'Bus'}"
1211422,"{'stop_name': 'Rua Da Biblioteca', 'stop_lat': -23.561479, 'stop_lon': -46.723713, 'stop_location_type': 'Bus'}"
1211423,"{'stop_name': 'Estação Hidrogênio', 'stop_lat': -23.553469, 'stop_lon': -46.73239, 'stop_location_type': 'Bus'}"
1211424,"{'stop_name': 'Metalurgia', 'stop_lat': -23.552224, 'stop_lon': -46.731491, 'stop_location_type': 'Bus'}"
1211425,"{'stop_name': 'Farmácia E Química II', 'stop_lat': -23.565906, 'stop_lon': -46.725313, 'stop_location_type': 'Bus'}"
1211426,"{'stop_name': 'Matemática E Estatística', 'stop_lat': -23.559089, 'stop_lon': -46.732653, 'stop_location_type': 'Bus'}"
1211427,"{'stop_name': 'R. Prof. Máximo Ribeiro Nunes, 651', 'stop_lat': -23.584234, 'stop_lon': -46.735939, 'stop_location_type': 'Bus'}"
1211428,"{'stop_name': 'R. Alvarenga, 1951', 'stop_lat': -23.564643, 'stop_lon': -46.711895, 'stop_location_type': 'Bus'}"
1211430,"{'stop_name': 'R. Prof. Máximo Ribeiro Nunes, 323', 'stop_lat': -23.582117, 'stop_lon': -46.731677, 'stop_location_type': 'Bus'}"
1313272,"{'stop_name': 'Av. Dep. Emílio Carlos, 3747', 'stop_lat': -23.476019, 'stop_lon': -46.669985, 'stop_location_type': 'Bus'}"
1313284,"{'stop_name': 'Av. Imirim, 4353', 'stop_lat': -23.475241, 'stop_lon': -46.665108, 'stop_location_type': 'Bus'}"
1313286,"{'stop_name': 'Ac. Acesso, 399', 'stop_lat': -23.476636, 'stop_lon': -46.667505, 'stop_location_type': 'Bus'}"
1313298,"{'stop_name': 'Av. Parada Pinto, 911', 'stop_lat': -23.469373, 'stop_lon': -46.661539, 'stop_location_type': 'Bus'}"
1313301,"{'stop_name': 'R. Água Preta, 188', 'stop_lat': -23.473353, 'stop_lon': -46.657125, 'stop_location_type': 'Bus'}"
1313406,"{'stop_name': 'Av. Gen. Penha Brasil, 257', 'stop_lat': -23.468954, 'stop_lon': -46.667405, 'stop_location_type': 'Bus'}"
1313407,"{'stop_name': 'Av. Gen. Penha Brasil, 226', 'stop_lat': -23.469086, 'stop_lon': -46.667006, 'stop_location_type': 'Bus'}"
1313408,"{'stop_name': 'R. Gomes Leal, 56', 'stop_lat': -23.467819, 'stop_lon': -46.666942, 'stop_location_type': 'Bus'}"
1313431,"{'stop_name': 'Av. Masao Watanabe, 439', 'stop_lat': -23.463232, 'stop_lon': -46.665916, 'stop_location_type': 'Bus'}"
1313433,"{'stop_name': 'Av. Gen. Penha Brasil, 1389', 'stop_lat': -23.460878, 'stop_lon': -46.671089, 'stop_location_type': 'Bus'}"
1313489,"{'stop_name': 'R. Eugênio Castro, 93', 'stop_lat': -23.465944, 'stop_lon': -46.664336, 'stop_location_type': 'Bus'}"
1313491,"{'stop_name': 'R. Solar, 163', 'stop_lat': -23.454709, 'stop_lon': -46.657976, 'stop_location_type': 'Bus'}"
1313492,"{'stop_name': 'R. Solar, 163', 'stop_lat': -23.454593, 'stop_lon': -46.657824, 'stop_location_type': 'Bus'}"
1313501,"{'stop_name': 'R. Koshun Takara, 338', 'stop_lat': -23.462206, 'stop_lon': -46.660413, 'stop_location_type': 'Bus'}"
1313502,"{'stop_name': 'Av. Parada Pinto, 1161', 'stop_lat': -23.469648, 'stop_lon': -46.659173, 'stop_location_type': 'Bus'}"
1313503,"{'stop_name': 'R. Koshun Takara', 'stop_lat': -23.463881, 'stop_lon': -46.658461, 'stop_location_type': 'Bus'}"
1313504,"{'stop_name': 'R. Koshun Takara, 472', 'stop_lat': -23.465103, 'stop_lon': -46.655861, 'stop_location_type': 'Bus'}"
1313505,"{'stop_name': 'R. Koshun Takara, 720', 'stop_lat': -23.463116, 'stop_lon': -46.662609, 'stop_location_type': 'Bus'}"
1313506,"{'stop_name': 'R. Koshun Takara, 85', 'stop_lat': -23.463276, 'stop_lon': -46.658432, 'stop_location_type': 'Bus'}"
1313507,"{'stop_name': 'R. Koshun Takara, 105', 'stop_lat': -23.46278, 'stop_lon': -46.662549, 'stop_location_type': 'Bus'}"
1313509,"{'stop_name': 'R. Gomes Leal, 560', 'stop_lat': -23.465919, 'stop_lon': -46.662528, 'stop_location_type': 'Bus'}"
1313512,"{'stop_name': 'Av. Francisco Machado Da Silva, 1713', 'stop_lat': -23.454564, 'stop_lon': -46.652287, 'stop_location_type': 'Bus'}"
1313513,"{'stop_name': 'R. Dario Vilares Barbosa, 24', 'stop_lat': -23.457058, 'stop_lon': -46.669778, 'stop_location_type': 'Bus'}"
1313516,"{'stop_name': 'Av. Inajar De Souza', 'stop_lat': -23.472329, 'stop_lon': -46.670181, 'stop_location_type': 'Bus'}"
1313517,"{'stop_name': 'Av. Inajar De Souza', 'stop_lat': -23.472365, 'stop_lon': -46.670444, 'stop_location_type': 'Bus'}"
1313518,"{'stop_name': 'R. Forte De São Caetano', 'stop_lat': -23.457458, 'stop_lon': -46.65615, 'stop_location_type': 'Bus'}"
1313520,"{'stop_name': 'R. Min. Lins De Barros, 394', 'stop_lat': -23.45795, 'stop_lon': -46.667552, 'stop_location_type': 'Bus'}"
1313523,"{'stop_name': 'R. Mendonca Júnior, 622', 'stop_lat': -23.476873, 'stop_lon': -46.664044, 'stop_location_type': 'Bus'}"
1313524,"{'stop_name': 'R. Mendonca Júnior, 658', 'stop_lat': -23.476746, 'stop_lon': -46.66348, 'stop_location_type': 'Bus'}"
1313525,"{'stop_name': 'R. Solar, 131', 'stop_lat': -23.454709, 'stop_lon': -46.658416, 'stop_location_type': 'Bus'}"
1313526,"{'stop_name': 'Parada Maternidade C/B', 'stop_lat': -23.479995, 'stop_lon': -46.673344, 'stop_location_type': 'Bus'}"
1313527,"{'stop_name': 'Parada Maternidade B/C', 'stop_lat': -23.480029, 'stop_lon': -46.673113, 'stop_location_type': 'Bus'}"
1313528,"{'stop_name': 'Av. João Marcelino Branco, 530', 'stop_lat': -23.476386, 'stop_lon': -46.668755, 'stop_location_type': 'Bus'}"
1313529,"{'stop_name': 'Av. João Marcelino Branco, 494', 'stop_lat': -23.476454, 'stop_lon': -46.668333, 'stop_location_type': 'Bus'}"
1313530,"{'stop_name': 'Av. Gen. Penha Brasil, 1630', 'stop_lat': -23.459847, 'stop_lon': -46.672915, 'stop_location_type': 'Bus'}"
1313531,"{'stop_name': 'R. Gomes Leal, 300', 'stop_lat': -23.467032, 'stop_lon': -46.664713, 'stop_location_type': 'Bus'}"
1313532,"{'stop_name': 'Av. Francisco Machado Da Silva, 460', 'stop_lat': -23.45441, 'stop_lon': -46.662121, 'stop_location_type': 'Bus'}"
1313533,"{'stop_name': 'Av. Inajar De Souza', 'stop_lat': -23.4793, 'stop_lon': -46.673493, 'stop_location_type': 'Bus'}"
1313534,"{'stop_name': 'Av. Imirim, 3206', 'stop_lat': -23.480229, 'stop_lon': -46.656583, 'stop_location_type': 'Bus'}"
1313535,"{'stop_name': 'R. Dario Vilares Barbosa, 1001', 'stop_lat': -23.453453, 'stop_lon': -46.671732, 'stop_location_type': 'Bus'}"
1313537,"{'stop_name': 'R. Solar', 'stop_lat': -23.455161, 'stop_lon': -46.659177, 'stop_location_type': 'Bus'}"
1313538,"{'stop_name': 'R. Dario Vilares Barbosa, 143', 'stop_lat': -23.458009, 'stop_lon': -46.670652, 'stop_location_type': 'Bus'}"
1313539,"{'stop_name': 'R. Forte De São Caetano', 'stop_lat': -23.457103, 'stop_lon': -46.656109, 'stop_location_type': 'Bus'}"
1313541,"{'stop_name': 'Av. Francisco Machado Da Silva, 149', 'stop_lat': -23.456593, 'stop_lon': -46.661628, 'stop_location_type': 'Bus'}"
1313542,"{'stop_name': 'Av. Francisco Machado Da Silva, 546', 'stop_lat': -23.455499, 'stop_lon': -46.654627, 'stop_location_type': 'Bus'}"
1313544,"{'stop_name': 'Av. Imirim, 3593', 'stop_lat': -23.479986, 'stop_lon': -46.661122, 'stop_location_type': 'Bus'}"
1313545,"{'stop_name': 'R. Palmas De São Moisés, 414', 'stop_lat': -23.455713, 'stop_lon': -46.654491, 'stop_location_type': 'Bus'}"
1313546,"{'stop_name': 'Av. Francisco Machado Da Silva, 1415', 'stop_lat': -23.455156, 'stop_lon': -46.652712, 'stop_location_type': 'Bus'}"
1313547,"{'stop_name': 'R. Palmas De São Moisés, 320', 'stop_lat': -23.45634, 'stop_lon': -46.65504, 'stop_location_type': 'Bus'}"
1313548,"{'stop_name': 'Av. Francisco Machado Da Silva, 1414', 'stop_lat': -23.455628, 'stop_lon': -46.653034, 'stop_location_type': 'Bus'}"
1313549,"{'stop_name': 'R. Domingos José Sapienza, 266', 'stop_lat': -23.46806, 'stop_lon': -46.650299, 'stop_location_type': 'Bus'}"
1313552,"{'stop_name': 'R. Almir Rodrigues, 387', 'stop_lat': -23.468102, 'stop_lon': -46.653143, 'stop_location_type': 'Bus'}"
1313553,"{'stop_name': 'Av. Francisco Machado Da Silva, 1', 'stop_lat': -23.455514, 'stop_lon': -46.654292, 'stop_location_type': 'Bus'}"
1313554,"{'stop_name': 'Av. Maria Antônia Martins, 344', 'stop_lat': -23.462951, 'stop_lon': -46.658023, 'stop_location_type': 'Bus'}"
1313555,"{'stop_name': 'Av. Maria Antônia Martins, 343', 'stop_lat': -23.463019, 'stop_lon': -46.657789, 'stop_location_type': 'Bus'}"
1313556,"{'stop_name': 'Av. Francisco Machado Da Silva', 'stop_lat': -23.455516, 'stop_lon': -46.65558, 'stop_location_type': 'Bus'}"
1313557,"{'stop_name': 'Av. Francisco Machado Da Silva', 'stop_lat': -23.454518, 'stop_lon': -46.65658, 'stop_location_type': 'Bus'}"
1313558,"{'stop_name': 'Av. Francisco Machado Da Silva, 856', 'stop_lat': -23.454531, 'stop_lon': -46.659176, 'stop_location_type': 'Bus'}"
1313560,"{'stop_name': 'R. Anfitrião, 235', 'stop_lat': -23.456209, 'stop_lon': -46.65975, 'stop_location_type': 'Bus'}"
1313561,"{'stop_name': 'Parada Exclusiva', 'stop_lat': -23.471749, 'stop_lon': -46.67025, 'stop_location_type': 'Bus'}"
1313562,"{'stop_name': 'Av. Inajar De Souza, 4400', 'stop_lat': -23.472963, 'stop_lon': -46.670074, 'stop_location_type': 'Bus'}"
1313565,"{'stop_name': 'Av. Mariana Caligiori Ronchetti, 420', 'stop_lat': -23.461125, 'stop_lon': -46.654231, 'stop_location_type': 'Bus'}"
1313567,"{'stop_name': 'Pça. Lions Clube-imirim', 'stop_lat': -23.476504, 'stop_lon': -46.663388, 'stop_location_type': 'Bus'}"
1313568,"{'stop_name': 'Terminal Vila Nova Cachoeirinha', 'stop_lat': -23.47539, 'stop_lon': -46.670275, 'stop_location_type': 'Bus'}"
1313569,"{'stop_name': 'Ac. Acesso', 'stop_lat': -23.476579, 'stop_lon': -46.667581, 'stop_location_type': 'Bus'}"
1313570,"{'stop_name': 'Ac. Acesso', 'stop_lat': -23.476574, 'stop_lon': -46.667489, 'stop_location_type': 'Bus'}"
1313572,"{'stop_name': 'R. Afonso Lopes Vieira, 150', 'stop_lat': -23.467288, 'stop_lon': -46.667093, 'stop_location_type': 'Bus'}"
1313573,"{'stop_name': 'R. Afonso Lopes Vieira, 474', 'stop_lat': -23.465187, 'stop_lon': -46.665378, 'stop_location_type': 'Bus'}"
